{"class":"VERSION","release":"3.16","rev":"3.16-4","proto_major":3,"proto_minor":11}
{"class":"DEVICES","devices":[{"class":"DEVICE","path":"/dev/tty96B1","activated":"2018-08-31T15:37:21.932Z","native":0,"bps":115200,"parity":"N","stopbits":1,"cycle":1.00}]}
{"class":"WATCH","enable":true,"json":true,"nmea":false,"raw":0,"scaled":false,"timing":false,"split24":false,"pps":false}
{"class":"DEVICE","path":"/dev/tty96B1","driver":"NMEA0183","activated":"2018-08-31T15:37:21.933Z","native":0,"bps":115200,"parity":"N","stopbits":1,"cycle":1.00}
{"class":"TPV","device":"/dev/tty96B1","mode":3,"lat":37.324446667,"lon":-121.924701667,"alt":32.000}
{"class":"TPV","device":"/dev/tty96B1","mode":3,"time":"2018-08-31T15:37:21.695Z","ept":0.005,"lat":37.324446667,"lon":-121.924701667,"alt":32.000,"track":357.0000,"speed":0.000}
{"class":"TPV","device":"/dev/tty96B1","mode":3,"time":"2018-08-31T15:37:21.745Z","ept":0.005,"lat":37.324446667,"lon":-121.924701667,"alt":32.000,"track":357.0000,"speed":0.000,"climb":0.000}
{"class":"TPV","device":"/dev/tty96B1","mode":3,"time":"2018-08-31T15:37:21.795Z","ept":0.005,"lat":37.324446667,"lon":-121.924701667,"alt":32.000,"track":357.0000,"speed":0.000,"climb":0.000}
{"class":"SKY","device":"/dev/tty96B1","xdop":0.71,"ydop":1.23,"vdop":2.00,"tdop":1.54,"hdop":1.40,"gdop":2.91,"pdop":2.50,"satellites":[{"PRN":2,"el":61,"az":183,"ss":33,"used":true},{"PRN":6,"el":59,"az":66,"ss":45,"used":true},{"PRN":12,"el":56,"az":325,"ss":48,"used":true},{"PRN":24,"el":52,"az":237,"ss":30,"used":true},{"PRN":19,"el":43,"az":47,"ss":38,"used":true},{"PRN":17,"el":19,"az":59,"ss":34,"used":true},{"PRN":25,"el":15,"az":307,"ss":37,"used":true},{"PRN":29,"el":1,"az":253,"ss":0,"used":false},{"PRN":28,"el":0,"az":116,"ss":0,"used":false},{"PRN":32,"el":0,"az":312,"ss":0,"used":false},{"PRN":3,"el":0,"az":29,"ss":0,"used":false},{"PRN":5,"el":0,"az":166,"ss":0,"used":false}]}
{"class":"TPV","device":"/dev/tty96B1","mode":3,"time":"2018-08-31T15:37:21.845Z","ept":0.005,"lat":37.324446667,"lon":-121.924701667,"alt":32.000,"epx":10.684,"epy":18.391,"epv":46.000,"track":357.0000,"speed":0.000,"climb":0.000}
{"class":"TPV","device":"/dev/tty96B1","mode":3,"time":"2018-08-31T15:37:21.895Z","ept":0.005,"lat":37.324446667,"lon":-121.924701667,"alt":32.000,"epx":10.684,"epy":18.391,"epv":46.000,"track":357.0000,"speed":0.000,"climb":0.000,"eps":735.65,"epc":1840.00}
{"class":"TPV","device":"/dev/tty96B1","mode":3,"time":"2018-08-31T15:37:21.945Z","ept":0.005,"lat":37.324446667,"lon":-121.924701667,"alt":32.000,"epx":10.684,"epy":18.391,"epv":46.000,"track":357.0000,"speed":0.000,"climb":0.000,"eps":735.65,"epc":1840.00}
{"class":"TPV","device":"/dev/tty96B1","mode":3,"time":"2018-08-31T15:37:21.995Z","ept":0.005,"lat":37.324446667,"lon":-121.924701667,"alt":32.000,"epx":10.684,"epy":18.391,"epv":46.000,"track":357.0000,"speed":0.000,"climb":0.000,"eps":735.65,"epc":1840.00}
{"class":"TPV","device":"/dev/tty96B1","mode":3,"time":"2018-08-31T15:37:22.045Z","ept":0.005,"lat":37.324446667,"lon":-121.924701667,"alt":32.000,"epx":10.684,"epy":18.391,"epv":46.000,"track":357.0000,"speed":0.000,"climb":0.000,"eps":735.65,"epc":1839.99}
{"class":"TPV","device":"/dev/tty96B1","mode":3,"time":"2018-08-31T15:37:22.095Z","ept":0.005,"lat":37.324446667,"lon":-121.924701667,"alt":32.000,"epx":10.684,"epy":18.391,"epv":46.000,"track":357.0000,"speed":0.000,"climb":0.000,"eps":735.65,"epc":1840.00}
{"class":"TPV","device":"/dev/tty96B1","mode":3,"time":"2018-08-31T15:37:22.145Z","ept":0.005,"lat":37.324446667,"lon":-121.924701667,"alt":32.000,"epx":10.684,"epy":18.391,"epv":46.000,"track":357.0000,"speed":0.000,"climb":0.000,"eps":735.65,"epc":1840.00}
{"class":"TPV","device":"/dev/tty96B1","mode":3,"time":"2018-08-31T15:37:22.195Z","ept":0.005,"lat":37.324446667,"lon":-121.924701667,"alt":32.000,"epx":10.684,"epy":18.391,"epv":46.000,"track":357.0000,"speed":0.000,"climb":0.000,"eps":735.65,"epc":1840.00}
{"class":"TPV","device":"/dev/tty96B1","mode":3,"time":"2018-08-31T15:37:22.245Z","ept":0.005,"lat":37.324446667,"lon":-121.924701667,"alt":32.000,"epx":10.684,"epy":18.391,"epv":46.000,"track":357.0000,"speed":0.000,"climb":0.000,"eps":735.65,"epc":1840.00}
{"class":"TPV","device":"/dev/tty96B1","mode":3,"time":"2018-08-31T15:37:22.295Z","ept":0.005,"lat":37.324446667,"lon":-121.924701667,"alt":32.000,"epx":10.684,"epy":18.391,"epv":46.000,"track":357.0000,"speed":0.000,"climb":0.000,"eps":735.65,"epc":1839.99}
{"class":"TPV","device":"/dev/tty96B1","mode":3,"time":"2018-08-31T15:37:22.345Z","ept":0.005,"lat":37.324446667,"lon":-121.924701667,"alt":32.000,"epx":10.684,"epy":18.391,"epv":46.000,"track":357.0000,"speed":0.000,"climb":0.000,"eps":735.65,"epc":1840.00}
{"class":"TPV","device":"/dev/tty96B1","mode":3,"time":"2018-08-31T15:37:22.395Z","ept":0.005,"lat":37.324446667,"lon":-121.924701667,"alt":32.000,"epx":10.684,"epy":18.391,"epv":46.000,"track":357.0000,"speed":0.000,"climb":0.000,"eps":735.65,"epc":1840.00}
{"class":"TPV","device":"/dev/tty96B1","mode":3,"time":"2018-08-31T15:37:22.445Z","ept":0.005,"lat":37.324446667,"lon":-121.924701667,"alt":32.000,"epx":10.684,"epy":18.391,"epv":46.000,"track":357.0000,"speed":0.000,"climb":0.000,"eps":735.65,"epc":1840.00}
{"class":"TPV","device":"/dev/tty96B1","mode":3,"time":"2018-08-31T15:37:22.495Z","ept":0.005,"lat":37.324446667,"lon":-121.924701667,"alt":32.000,"epx":10.684,"epy":18.391,"epv":46.000,"track":357.0000,"speed":0.000,"climb":0.000,"eps":735.65,"epc":1840.00}
{"class":"TPV","device":"/dev/tty96B1","mode":3,"time":"2018-08-31T15:37:22.545Z","ept":0.005,"lat":37.324446667,"lon":-121.924701667,"alt":32.000,"epx":10.684,"epy":18.391,"epv":46.000,"track":357.0000,"speed":0.000,"climb":0.000,"eps":735.65,"epc":1839.99}
{"class":"TPV","device":"/dev/tty96B1","mode":3,"time":"2018-08-31T15:37:22.595Z","ept":0.005,"lat":37.324446667,"lon":-121.924701667,"alt":32.000,"epx":10.684,"epy":18.391,"epv":46.000,"track":357.0000,"speed":0.000,"climb":0.000,"eps":735.65,"epc":1840.00}
{"class":"TPV","device":"/dev/tty96B1","mode":3,"time":"2018-08-31T15:37:22.645Z","ept":0.005,"lat":37.324446667,"lon":-121.924701667,"alt":32.000,"epx":10.684,"epy":18.391,"epv":46.000,"track":357.0000,"speed":0.000,"climb":0.000,"eps":735.65,"epc":1840.00}
{"class":"TPV","device":"/dev/tty96B1","mode":3,"time":"2018-08-31T15:37:22.695Z","ept":0.005,"lat":37.324446667,"lon":-121.924701667,"alt":32.000,"epx":10.684,"epy":18.391,"epv":46.000,"track":357.0000,"speed":0.000,"climb":0.000,"eps":735.65,"epc":1840.00}
{"class":"TPV","device":"/dev/tty96B1","mode":3,"time":"2018-08-31T15:37:22.745Z","ept":0.005,"lat":37.324446667,"lon":-121.924701667,"alt":32.000,"epx":10.684,"epy":18.391,"epv":46.000,"track":357.0000,"speed":0.000,"climb":0.000,"eps":735.65,"epc":1840.00}
{"class":"TPV","device":"/dev/tty96B1","mode":3,"time":"2018-08-31T15:37:22.795Z","ept":0.005,"lat":37.324446667,"lon":-121.924701667,"alt":32.000,"epx":10.684,"epy":18.391,"epv":46.000,"track":357.0000,"speed":0.000,"climb":0.000,"eps":735.65,"epc":1839.99}
{"class":"SKY","device":"/dev/tty96B1","xdop":0.71,"ydop":1.23,"vdop":2.00,"tdop":1.54,"hdop":1.40,"gdop":2.91,"pdop":2.50,"satellites":[{"PRN":2,"el":61,"az":183,"ss":34,"used":true},{"PRN":6,"el":59,"az":66,"ss":45,"used":true},{"PRN":12,"el":56,"az":325,"ss":48,"used":true},{"PRN":24,"el":52,"az":237,"ss":30,"used":true},{"PRN":19,"el":43,"az":47,"ss":38,"used":true},{"PRN":17,"el":19,"az":59,"ss":33,"used":true},{"PRN":25,"el":15,"az":307,"ss":38,"used":true},{"PRN":29,"el":1,"az":253,"ss":0,"used":false},{"PRN":28,"el":0,"az":116,"ss":0,"used":false},{"PRN":32,"el":0,"az":312,"ss":0,"used":false},{"PRN":3,"el":0,"az":29,"ss":0,"used":false},{"PRN":5,"el":0,"az":166,"ss":0,"used":false}]}
{"class":"TPV","device":"/dev/tty96B1","mode":3,"time":"2018-08-31T15:37:22.845Z","ept":0.005,"lat":37.324446667,"lon":-121.924701667,"alt":32.000,"epx":10.684,"epy":18.391,"epv":46.000,"track":357.0000,"speed":0.000,"climb":0.000,"eps":735.65,"epc":1840.00}
{"class":"TPV","device":"/dev/tty96B1","mode":3,"time":"2018-08-31T15:37:22.895Z","ept":0.005,"lat":37.324446667,"lon":-121.924701667,"alt":32.000,"epx":10.684,"epy":18.391,"epv":46.000,"track":357.0000,"speed":0.000,"climb":0.000,"eps":735.65,"epc":1840.00}
{"class":"TPV","device":"/dev/tty96B1","mode":3,"time":"2018-08-31T15:37:22.945Z","ept":0.005,"lat":37.324446667,"lon":-121.924701667,"alt":32.000,"epx":10.684,"epy":18.391,"epv":46.000,"track":357.0000,"speed":0.000,"climb":0.000,"eps":735.65,"epc":1840.00}
{"class":"TPV","device":"/dev/tty96B1","mode":3,"time":"2018-08-31T15:37:22.995Z","ept":0.005,"lat":37.324446667,"lon":-121.924701667,"alt":32.000,"epx":10.684,"epy":18.391,"epv":46.000,"track":357.0000,"speed":0.000,"climb":0.000,"eps":735.65,"epc":1840.00}
{"class":"TPV","device":"/dev/tty96B1","mode":3,"time":"2018-08-31T15:37:23.045Z","ept":0.005,"lat":37.324446667,"lon":-121.924701667,"alt":32.000,"epx":10.684,"epy":18.391,"epv":46.000,"track":357.0000,"speed":0.000,"climb":0.000,"eps":735.65,"epc":1839.99}
{"class":"TPV","device":"/dev/tty96B1","mode":3,"time":"2018-08-31T15:37:23.095Z","ept":0.005,"lat":37.324446667,"lon":-121.924701667,"alt":32.000,"epx":10.684,"epy":18.391,"epv":46.000,"track":357.0000,"speed":0.000,"climb":0.000,"eps":735.65,"epc":1840.00}
{"class":"TPV","device":"/dev/tty96B1","mode":3,"time":"2018-08-31T15:37:23.145Z","ept":0.005,"lat":37.324446667,"lon":-121.924701667,"alt":32.000,"epx":10.684,"epy":18.391,"epv":46.000,"track":357.0000,"speed":0.000,"climb":0.000,"eps":735.65,"epc":1840.00}
{"class":"TPV","device":"/dev/tty96B1","mode":3,"time":"2018-08-31T15:37:23.195Z","ept":0.005,"lat":37.324446667,"lon":-121.924701667,"alt":32.000,"epx":10.684,"epy":18.391,"epv":46.000,"track":357.0000,"speed":0.000,"climb":0.000,"eps":735.65,"epc":1840.00}
{"class":"TPV","device":"/dev/tty96B1","mode":3,"time":"2018-08-31T15:37:23.245Z","ept":0.005,"lat":37.324446667,"lon":-121.924701667,"alt":32.000,"epx":10.684,"epy":18.391,"epv":46.000,"track":357.0000,"speed":0.000,"climb":0.000,"eps":735.65,"epc":1840.00}
{"class":"TPV","device":"/dev/tty96B1","mode":3,"time":"2018-08-31T15:37:23.295Z","ept":0.005,"lat":37.324446667,"lon":-121.924701667,"alt":32.000,"epx":10.684,"epy":18.391,"epv":46.000,"track":357.0000,"speed":0.000,"climb":0.000,"eps":735.65,"epc":1839.99}
{"class":"TPV","device":"/dev/tty96B1","mode":3,"time":"2018-08-31T15:37:23.345Z","ept":0.005,"lat":37.324446667,"lon":-121.924701667,"alt":32.000,"epx":10.684,"epy":18.391,"epv":46.000,"track":357.0000,"speed":0.000,"climb":0.000,"eps":735.65,"epc":1840.00}
{"class":"TPV","device":"/dev/tty96B1","mode":3,"time":"2018-08-31T15:37:23.395Z","ept":0.005,"lat":37.324446667,"lon":-121.924701667,"alt":32.000,"epx":10.684,"epy":18.391,"epv":46.000,"track":357.0000,"speed":0.000,"climb":0.000,"eps":735.65,"epc":1840.00}
{"class":"TPV","device":"/dev/tty96B1","mode":3,"time":"2018-08-31T15:37:23.445Z","ept":0.005,"lat":37.324446667,"lon":-121.924701667,"alt":32.000,"epx":10.684,"epy":18.391,"epv":46.000,"track":357.0000,"speed":0.000,"climb":0.000,"eps":735.65,"epc":1840.00}
{"class":"TPV","device":"/dev/tty96B1","mode":3,"time":"2018-08-31T15:37:23.495Z","ept":0.005,"lat":37.324446667,"lon":-121.924701667,"alt":32.000,"epx":10.684,"epy":18.391,"epv":46.000,"track":357.0000,"speed":0.000,"climb":0.000,"eps":735.65,"epc":1840.00}
{"class":"TPV","device":"/dev/tty96B1","mode":3,"time":"2018-08-31T15:37:23.545Z","ept":0.005,"lat":37.324446667,"lon":-121.924701667,"alt":32.000,"epx":10.684,"epy":18.391,"epv":46.000,"track":357.0000,"speed":0.000,"climb":0.000,"eps":735.65,"epc":1839.99}
{"class":"TPV","device":"/dev/tty96B1","mode":3,"time":"2018-08-31T15:37:23.595Z","ept":0.005,"lat":37.324446667,"lon":-121.924701667,"alt":32.000,"epx":10.684,"epy":18.391,"epv":46.000,"track":357.0000,"speed":0.000,"climb":0.000,"eps":735.65,"epc":1840.00}
{"class":"TPV","device":"/dev/tty96B1","mode":3,"time":"2018-08-31T15:37:23.645Z","ept":0.005,"lat":37.324446667,"lon":-121.924701667,"alt":32.000,"epx":10.684,"epy":18.391,"epv":46.000,"track":357.0000,"speed":0.000,"climb":0.000,"eps":735.65,"epc":1840.00}
{"class":"TPV","device":"/dev/tty96B1","mode":3,"time":"2018-08-31T15:37:23.695Z","ept":0.005,"lat":37.324446667,"lon":-121.924701667,"alt":32.000,"epx":10.684,"epy":18.391,"epv":46.000,"track":357.0000,"speed":0.000,"climb":0.000,"eps":735.65,"epc":1840.00}
{"class":"TPV","device":"/dev/tty96B1","mode":3,"time":"2018-08-31T15:37:23.745Z","ept":0.005,"lat":37.324446667,"lon":-121.924701667,"alt":32.000,"epx":10.684,"epy":18.391,"epv":46.000,"track":357.0000,"speed":0.000,"climb":0.000,"eps":735.65,"epc":1840.00}
{"class":"TPV","device":"/dev/tty96B1","mode":3,"time":"2018-08-31T15:37:23.795Z","ept":0.005,"lat":37.324446667,"lon":-121.924701667,"alt":32.000,"epx":10.684,"epy":18.391,"epv":46.000,"track":357.0000,"speed":0.000,"climb":0.000,"eps":735.65,"epc":1839.99}
{"class":"SKY","device":"/dev/tty96B1","xdop":0.71,"ydop":1.23,"vdop":2.00,"tdop":1.54,"hdop":1.40,"gdop":2.91,"pdop":2.50,"satellites":[{"PRN":2,"el":61,"az":183,"ss":32,"used":true},{"PRN":6,"el":59,"az":66,"ss":46,"used":true},{"PRN":12,"el":56,"az":325,"ss":48,"used":true},{"PRN":24,"el":52,"az":237,"ss":30,"used":true},{"PRN":19,"el":43,"az":47,"ss":38,"used":true},{"PRN":17,"el":19,"az":59,"ss":34,"used":true},{"PRN":25,"el":15,"az":307,"ss":39,"used":true},{"PRN":29,"el":1,"az":253,"ss":0,"used":false},{"PRN":28,"el":0,"az":116,"ss":0,"used":false},{"PRN":32,"el":0,"az":312,"ss":0,"used":false},{"PRN":3,"el":0,"az":29,"ss":0,"used":false},{"PRN":5,"el":0,"az":166,"ss":0,"used":false}]}
{"class":"TPV","device":"/dev/tty96B1","mode":3,"time":"2018-08-31T15:37:23.845Z","ept":0.005,"lat":37.324446667,"lon":-121.924701667,"alt":32.000,"epx":10.684,"epy":18.391,"epv":46.000,"track":357.0000,"speed":0.000,"climb":0.000,"eps":735.65,"epc":1840.00}
{"class":"TPV","device":"/dev/tty96B1","mode":3,"time":"2018-08-31T15:37:23.895Z","ept":0.005,"lat":37.324446667,"lon":-121.924701667,"alt":32.000,"epx":10.684,"epy":18.391,"epv":46.000,"track":357.0000,"speed":0.000,"climb":0.000,"eps":735.65,"epc":1840.00}
{"class":"TPV","device":"/dev/tty96B1","mode":3,"time":"2018-08-31T15:37:23.945Z","ept":0.005,"lat":37.324446667,"lon":-121.924701667,"alt":32.000,"epx":10.684,"epy":18.391,"epv":46.000,"track":357.0000,"speed":0.000,"climb":0.000,"eps":735.65,"epc":1840.00}
{"class":"TPV","device":"/dev/tty96B1","mode":3,"time":"2018-08-31T15:37:23.995Z","ept":0.005,"lat":37.324446667,"lon":-121.924701667,"alt":32.000,"epx":10.684,"epy":18.391,"epv":46.000,"track":357.0000,"speed":0.000,"climb":0.000,"eps":735.65,"epc":1840.00}
{"class":"TPV","device":"/dev/tty96B1","mode":3,"time":"2018-08-31T15:37:24.045Z","ept":0.005,"lat":37.324446667,"lon":-121.924701667,"alt":32.000,"epx":10.684,"epy":18.391,"epv":46.000,"track":357.0000,"speed":0.000,"climb":0.000,"eps":735.65,"epc":1839.99}
{"class":"TPV","device":"/dev/tty96B1","mode":3,"time":"2018-08-31T15:37:24.095Z","ept":0.005,"lat":37.324446667,"lon":-121.924701667,"alt":32.000,"epx":10.684,"epy":18.391,"epv":46.000,"track":357.0000,"speed":0.000,"climb":0.000,"eps":735.65,"epc":1840.00}
{"class":"TPV","device":"/dev/tty96B1","mode":3,"time":"2018-08-31T15:37:24.145Z","ept":0.005,"lat":37.324446667,"lon":-121.924701667,"alt":32.000,"epx":10.684,"epy":18.391,"epv":46.000,"track":357.0000,"speed":0.000,"climb":0.000,"eps":735.65,"epc":1840.00}
{"class":"TPV","device":"/dev/tty96B1","mode":3,"time":"2018-08-31T15:37:24.195Z","ept":0.005,"lat":37.324446667,"lon":-121.924701667,"alt":32.000,"epx":10.684,"epy":18.391,"epv":46.000,"track":357.0000,"speed":0.000,"climb":0.000,"eps":735.65,"epc":1840.00}
{"class":"TPV","device":"/dev/tty96B1","mode":3,"time":"2018-08-31T15:37:24.245Z","ept":0.005,"lat":37.324446667,"lon":-121.924701667,"alt":32.000,"epx":10.684,"epy":18.391,"epv":46.000,"track":357.0000,"speed":0.000,"climb":0.000,"eps":735.65,"epc":1840.00}
{"class":"TPV","device":"/dev/tty96B1","mode":3,"time":"2018-08-31T15:37:24.295Z","ept":0.005,"lat":37.324446667,"lon":-121.924701667,"alt":32.000,"epx":10.684,"epy":18.391,"epv":46.000,"track":357.0000,"speed":0.000,"climb":0.000,"eps":735.65,"epc":1839.99}
{"class":"TPV","device":"/dev/tty96B1","mode":3,"time":"2018-08-31T15:37:24.345Z","ept":0.005,"lat":37.324446667,"lon":-121.924701667,"alt":32.000,"epx":10.684,"epy":18.391,"epv":46.000,"track":357.0000,"speed":0.000,"climb":0.000,"eps":735.65,"epc":1840.00}
{"class":"TPV","device":"/dev/tty96B1","mode":3,"time":"2018-08-31T15:37:24.395Z","ept":0.005,"lat":37.324446667,"lon":-121.924701667,"alt":32.000,"epx":10.684,"epy":18.391,"epv":46.000,"track":357.0000,"speed":0.000,"climb":0.000,"eps":735.65,"epc":1840.00}
{"class":"TPV","device":"/dev/tty96B1","mode":3,"time":"2018-08-31T15:37:24.445Z","ept":0.005,"lat":37.324446667,"lon":-121.924701667,"alt":32.000,"epx":10.684,"epy":18.391,"epv":46.000,"track":357.0000,"speed":0.000,"climb":0.000,"eps":735.65,"epc":1840.00}
{"class":"TPV","device":"/dev/tty96B1","mode":3,"time":"2018-08-31T15:37:24.495Z","ept":0.005,"lat":37.324446667,"lon":-121.924701667,"alt":32.000,"epx":10.684,"epy":18.391,"epv":46.000,"track":357.0000,"speed":0.000,"climb":0.000,"eps":735.65,"epc":1840.00}
{"class":"TPV","device":"/dev/tty96B1","mode":3,"time":"2018-08-31T15:37:24.545Z","ept":0.005,"lat":37.324446667,"lon":-121.924701667,"alt":32.000,"epx":10.684,"epy":18.391,"epv":46.000,"track":357.0000,"speed":0.000,"climb":0.000,"eps":735.65,"epc":1839.99}
{"class":"TPV","device":"/dev/tty96B1","mode":3,"time":"2018-08-31T15:37:24.595Z","ept":0.005,"lat":37.324446667,"lon":-121.924701667,"alt":32.000,"epx":10.684,"epy":18.391,"epv":46.000,"track":357.0000,"speed":0.000,"climb":0.000,"eps":735.65,"epc":1840.00}
{"class":"TPV","device":"/dev/tty96B1","mode":3,"time":"2018-08-31T15:37:24.645Z","ept":0.005,"lat":37.324446667,"lon":-121.924701667,"alt":32.000,"epx":10.684,"epy":18.391,"epv":46.000,"track":357.0000,"speed":0.000,"climb":0.000,"eps":735.65,"epc":1840.00}
{"class":"TPV","device":"/dev/tty96B1","mode":3,"time":"2018-08-31T15:37:24.695Z","ept":0.005,"lat":37.324445000,"lon":-121.924701667,"alt":31.900,"epx":10.684,"epy":18.391,"epv":46.000,"track":357.0000,"speed":0.000,"climb":-2.000,"eps":735.65,"epc":1840.00}
{"class":"TPV","device":"/dev/tty96B1","mode":3,"time":"2018-08-31T15:37:24.745Z","ept":0.005,"lat":37.324446667,"lon":-121.924701667,"alt":32.000,"epx":10.684,"epy":18.391,"epv":46.000,"track":357.0000,"speed":0.000,"climb":2.000,"eps":735.65,"epc":1840.00}
{"class":"TPV","device":"/dev/tty96B1","mode":3,"time":"2018-08-31T15:37:24.795Z","ept":0.005,"lat":37.324460000,"lon":-121.924711667,"alt":32.400,"epx":10.684,"epy":18.391,"epv":46.000,"track":357.0000,"speed":0.206,"climb":8.000,"eps":735.65,"epc":1839.99}
{"class":"SKY","device":"/dev/tty96B1","xdop":0.71,"ydop":1.23,"vdop":2.00,"tdop":1.54,"hdop":1.40,"gdop":2.91,"pdop":2.50,"satellites":[{"PRN":2,"el":61,"az":183,"ss":32,"used":true},{"PRN":6,"el":59,"az":66,"ss":45,"used":true},{"PRN":12,"el":56,"az":325,"ss":47,"used":true},{"PRN":24,"el":52,"az":237,"ss":31,"used":true},{"PRN":19,"el":43,"az":47,"ss":39,"used":true},{"PRN":17,"el":19,"az":59,"ss":32,"used":true},{"PRN":25,"el":15,"az":307,"ss":37,"used":true},{"PRN":29,"el":1,"az":253,"ss":0,"used":false},{"PRN":28,"el":0,"az":116,"ss":0,"used":false},{"PRN":32,"el":0,"az":312,"ss":0,"used":false},{"PRN":3,"el":0,"az":29,"ss":0,"used":false},{"PRN":5,"el":0,"az":166,"ss":0,"used":false}]}
{"class":"TPV","device":"/dev/tty96B1","mode":3,"time":"2018-08-31T15:37:24.845Z","ept":0.005,"lat":37.324473333,"lon":-121.924721667,"alt":32.800,"epx":10.684,"epy":18.391,"epv":46.000,"track":357.0000,"speed":0.360,"climb":8.000,"eps":735.65,"epc":1840.00}
{"class":"TPV","device":"/dev/tty96B1","mode":3,"time":"2018-08-31T15:37:24.895Z","ept":0.005,"lat":37.324475000,"lon":-121.924721667,"alt":32.900,"epx":10.684,"epy":18.391,"epv":46.000,"track":357.0000,"speed":0.154,"climb":2.000,"eps":735.65,"epc":1840.00}
{"class":"TPV","device":"/dev/tty96B1","mode":3,"time":"2018-08-31T15:37:24.945Z","ept":0.005,"lat":37.324473333,"lon":-121.924721667,"alt":32.800,"epx":10.684,"epy":18.391,"epv":46.000,"track":357.0000,"speed":0.000,"climb":-2.000,"eps":735.65,"epc":1840.00}
{"class":"TPV","device":"/dev/tty96B1","mode":3,"time":"2018-08-31T15:37:24.995Z","ept":0.005,"lat":37.324473333,"lon":-121.924721667,"alt":32.800,"epx":10.684,"epy":18.391,"epv":46.000,"track":357.0000,"speed":0.360,"climb":0.000,"eps":735.65,"epc":1840.00}
{"class":"TPV","device":"/dev/tty96B1","mode":3,"time":"2018-08-31T15:37:25.045Z","ept":0.005,"lat":37.324473333,"lon":-121.924721667,"alt":32.900,"epx":10.684,"epy":18.391,"epv":46.000,"track":357.0000,"speed":0.772,"climb":2.000,"eps":735.65,"epc":1839.99}
{"class":"TPV","device":"/dev/tty96B1","mode":3,"time":"2018-08-31T15:37:25.095Z","ept":0.005,"lat":37.324473333,"lon":-121.924721667,"alt":32.900,"epx":10.684,"epy":18.391,"epv":46.000,"track":272.1000,"speed":0.823,"climb":0.000,"eps":735.65,"epc":1840.00}
{"class":"TPV","device":"/dev/tty96B1","mode":3,"time":"2018-08-31T15:37:25.145Z","ept":0.005,"lat":37.324473333,"lon":-121.924721667,"alt":32.900,"epx":10.684,"epy":18.391,"epv":46.000,"track":187.2000,"speed":0.823,"climb":0.000,"eps":735.65,"epc":1840.00}
{"class":"TPV","device":"/dev/tty96B1","mode":3,"time":"2018-08-31T15:37:25.195Z","ept":0.005,"lat":37.324473333,"lon":-121.924723333,"alt":32.900,"epx":10.684,"epy":18.391,"epv":46.000,"track":187.2000,"speed":0.772,"climb":0.000,"eps":735.65,"epc":1840.00}
{"class":"TPV","device":"/dev/tty96B1","mode":3,"time":"2018-08-31T15:37:25.245Z","ept":0.005,"lat":37.324473333,"lon":-121.924723333,"alt":32.900,"epx":10.684,"epy":18.391,"epv":46.000,"track":187.2000,"speed":0.772,"climb":0.000,"eps":735.65,"epc":1840.00}
{"class":"TPV","device":"/dev/tty96B1","mode":3,"time":"2018-08-31T15:37:25.295Z","ept":0.005,"lat":37.324473333,"lon":-121.924723333,"alt":32.900,"epx":10.684,"epy":18.391,"epv":46.000,"track":187.2000,"speed":0.823,"climb":0.000,"eps":735.65,"epc":1839.99}
{"class":"TPV","device":"/dev/tty96B1","mode":3,"time":"2018-08-31T15:37:25.345Z","ept":0.005,"lat":37.324473333,"lon":-121.924723333,"alt":32.900,"epx":10.684,"epy":18.391,"epv":46.000,"track":187.2000,"speed":0.875,"climb":0.000,"eps":735.65,"epc":1840.00}
{"class":"TPV","device":"/dev/tty96B1","mode":3,"time":"2018-08-31T15:37:25.395Z","ept":0.005,"lat":37.324473333,"lon":-121.924723333,"alt":32.900,"epx":10.684,"epy":18.391,"epv":46.000,"track":187.2000,"speed":0.823,"climb":0.000,"eps":735.65,"epc":1840.00}
{"class":"TPV","device":"/dev/tty96B1","mode":3,"time":"2018-08-31T15:37:25.445Z","ept":0.005,"lat":37.324473333,"lon":-121.924725000,"alt":32.800,"epx":10.684,"epy":18.391,"epv":46.000,"track":187.2000,"speed":0.772,"climb":-2.000,"eps":735.65,"epc":1840.00}
{"class":"TPV","device":"/dev/tty96B1","mode":3,"time":"2018-08-31T15:37:25.495Z","ept":0.005,"lat":37.324473333,"lon":-121.924725000,"alt":32.800,"epx":10.684,"epy":18.391,"epv":46.000,"track":187.2000,"speed":0.720,"climb":0.000,"eps":735.65,"epc":1840.00}
{"class":"TPV","device":"/dev/tty96B1","mode":3,"time":"2018-08-31T15:37:25.545Z","ept":0.005,"lat":37.324473333,"lon":-121.924725000,"alt":32.800,"epx":10.684,"epy":18.391,"epv":46.000,"track":187.2000,"speed":0.720,"climb":0.000,"eps":735.65,"epc":1839.99}
{"class":"TPV","device":"/dev/tty96B1","mode":3,"time":"2018-08-31T15:37:25.595Z","ept":0.005,"lat":37.324473333,"lon":-121.924723333,"alt":32.800,"epx":10.684,"epy":18.391,"epv":46.000,"track":187.2000,"speed":0.823,"climb":0.000,"eps":735.65,"epc":1840.00}
{"class":"TPV","device":"/dev/tty96B1","mode":3,"time":"2018-08-31T15:37:25.645Z","ept":0.005,"lat":37.324473333,"lon":-121.924723333,"alt":32.800,"epx":10.684,"epy":18.391,"epv":46.000,"track":187.2000,"speed":0.977,"climb":0.000,"eps":735.65,"epc":1840.00}
{"class":"TPV","device":"/dev/tty96B1","mode":3,"time":"2018-08-31T15:37:25.695Z","ept":0.005,"lat":37.324473333,"lon":-121.924723333,"alt":32.800,"epx":10.684,"epy":18.391,"epv":46.000,"track":187.2000,"speed":1.286,"climb":0.000,"eps":735.65,"epc":1840.00}
{"class":"TPV","device":"/dev/tty96B1","mode":3,"time":"2018-08-31T15:37:25.745Z","ept":0.005,"lat":37.324473333,"lon":-121.924723333,"alt":32.800,"epx":10.684,"epy":18.391,"epv":46.000,"track":187.2000,"speed":1.492,"climb":0.000,"eps":735.65,"epc":1840.00}
{"class":"TPV","device":"/dev/tty96B1","mode":3,"time":"2018-08-31T15:37:25.795Z","ept":0.005,"lat":37.324473333,"lon":-121.924723333,"alt":32.800,"epx":10.684,"epy":18.391,"epv":46.000,"track":187.2000,"speed":1.080,"climb":0.000,"eps":735.65,"epc":1839.99}
{"class":"SKY","device":"/dev/tty96B1","xdop":0.71,"ydop":1.23,"vdop":3.10,"tdop":1.54,"hdop":1.80,"gdop":2.91,"pdop":3.60,"satellites":[{"PRN":2,"el":61,"az":183,"ss":30,"used":true},{"PRN":6,"el":59,"az":66,"ss":25,"used":true},{"PRN":12,"el":56,"az":325,"ss":38,"used":true},{"PRN":24,"el":52,"az":237,"ss":28,"used":true},{"PRN":19,"el":43,"az":47,"ss":31,"used":true},{"PRN":17,"el":19,"az":59,"ss":16,"used":false},{"PRN":25,"el":15,"az":307,"ss":26,"used":true},{"PRN":29,"el":1,"az":253,"ss":0,"used":false},{"PRN":28,"el":0,"az":116,"ss":0,"used":false},{"PRN":32,"el":0,"az":312,"ss":0,"used":false},{"PRN":3,"el":0,"az":29,"ss":0,"used":false},{"PRN":5,"el":0,"az":166,"ss":0,"used":false}]}
{"class":"TPV","device":"/dev/tty96B1","mode":3,"time":"2018-08-31T15:37:25.845Z","ept":0.005,"lat":37.324473333,"lon":-121.924723333,"alt":32.800,"epx":10.684,"epy":18.391,"epv":46.000,"track":187.2000,"speed":0.720,"climb":0.000,"eps":735.65,"epc":1840.00}
{"class":"TPV","device":"/dev/tty96B1","mode":3,"time":"2018-08-31T15:37:25.895Z","ept":0.005,"lat":37.324473333,"lon":-121.924723333,"alt":32.800,"epx":10.684,"epy":18.391,"epv":71.300,"track":187.2000,"speed":0.977,"climb":0.000,"eps":735.65,"epc":2346.00}
{"class":"TPV","device":"/dev/tty96B1","mode":3,"time":"2018-08-31T15:37:25.945Z","ept":0.005,"lat":37.324473333,"lon":-121.924723333,"alt":32.800,"epx":10.684,"epy":18.391,"epv":71.300,"track":187.2000,"speed":1.286,"climb":0.000,"eps":735.65,"epc":2852.00}
{"class":"TPV","device":"/dev/tty96B1","mode":3,"time":"2018-08-31T15:37:25.995Z","ept":0.005,"lat":37.324473333,"lon":-121.924723333,"alt":32.700,"epx":10.684,"epy":18.391,"epv":71.300,"track":187.2000,"speed":1.286,"climb":-2.000,"eps":735.65,"epc":2852.00}
{"class":"TPV","device":"/dev/tty96B1","mode":3,"time":"2018-08-31T15:37:26.045Z","ept":0.005,"lat":37.324473333,"lon":-121.924723333,"alt":32.700,"epx":10.684,"epy":18.391,"epv":71.300,"track":187.2000,"speed":1.183,"climb":0.000,"eps":735.65,"epc":2851.99}
{"class":"TPV","device":"/dev/tty96B1","mode":3,"time":"2018-08-31T15:37:26.095Z","ept":0.005,"lat":37.324473333,"lon":-121.924723333,"alt":32.700,"epx":10.684,"epy":18.391,"epv":71.300,"track":187.2000,"speed":1.080,"climb":0.000,"eps":735.65,"epc":2852.00}
{"class":"TPV","device":"/dev/tty96B1","mode":3,"time":"2018-08-31T15:37:26.145Z","ept":0.005,"lat":37.324473333,"lon":-121.924723333,"alt":32.700,"epx":10.684,"epy":18.391,"epv":71.300,"track":187.2000,"speed":0.977,"climb":0.000,"eps":735.65,"epc":2852.00}
{"class":"TPV","device":"/dev/tty96B1","mode":3,"time":"2018-08-31T15:37:26.195Z","ept":0.005,"lat":37.324473333,"lon":-121.924723333,"alt":32.700,"epx":10.684,"epy":18.391,"epv":71.300,"track":176.5000,"speed":1.080,"climb":0.000,"eps":735.65,"epc":2852.00}
{"class":"TPV","device":"/dev/tty96B1","mode":3,"time":"2018-08-31T15:37:26.245Z","ept":0.005,"lat":37.324473333,"lon":-121.924723333,"alt":32.700,"epx":10.684,"epy":18.391,"epv":71.300,"track":165.7000,"speed":1.183,"climb":0.000,"eps":735.65,"epc":2852.00}
{"class":"TPV","device":"/dev/tty96B1","mode":3,"time":"2018-08-31T15:37:26.295Z","ept":0.005,"lat":37.324473333,"lon":-121.924723333,"alt":32.700,"epx":10.684,"epy":18.391,"epv":71.300,"track":165.7000,"speed":0.977,"climb":0.000,"eps":735.65,"epc":2851.99}
{"class":"TPV","device":"/dev/tty96B1","mode":3,"time":"2018-08-31T15:37:26.345Z","ept":0.005,"lat":37.324473333,"lon":-121.924723333,"alt":32.700,"epx":10.684,"epy":18.391,"epv":71.300,"track":165.7000,"speed":0.720,"climb":0.000,"eps":735.65,"epc":2852.00}
{"class":"TPV","device":"/dev/tty96B1","mode":3,"time":"2018-08-31T15:37:26.395Z","ept":0.005,"lat":37.324473333,"lon":-121.924723333,"alt":32.700,"epx":10.684,"epy":18.391,"epv":71.300,"track":165.7000,"speed":0.669,"climb":0.000,"eps":735.65,"epc":2852.00}
{"class":"TPV","device":"/dev/tty96B1","mode":3,"time":"2018-08-31T15:37:26.445Z","ept":0.005,"lat":37.324475000,"lon":-121.924723333,"alt":32.700,"epx":10.684,"epy":18.391,"epv":71.300,"track":165.7000,"speed":0.720,"climb":0.000,"eps":735.65,"epc":2852.00}
{"class":"TPV","device":"/dev/tty96B1","mode":3,"time":"2018-08-31T15:37:26.495Z","ept":0.005,"lat":37.324475000,"lon":-121.924723333,"alt":32.700,"epx":10.684,"epy":18.391,"epv":71.300,"track":165.7000,"speed":0.669,"climb":0.000,"eps":735.65,"epc":2852.00}
{"class":"TPV","device":"/dev/tty96B1","mode":3,"time":"2018-08-31T15:37:26.545Z","ept":0.005,"lat":37.324475000,"lon":-121.924723333,"alt":32.700,"epx":10.684,"epy":18.391,"epv":71.300,"track":165.7000,"speed":0.669,"climb":0.000,"eps":735.65,"epc":2851.99}
{"class":"TPV","device":"/dev/tty96B1","mode":3,"time":"2018-08-31T15:37:26.595Z","ept":0.005,"lat":37.324475000,"lon":-121.924723333,"alt":32.700,"epx":10.684,"epy":18.391,"epv":71.300,"track":165.7000,"speed":0.617,"climb":0.000,"eps":735.65,"epc":2852.00}
{"class":"TPV","device":"/dev/tty96B1","mode":3,"time":"2018-08-31T15:37:26.645Z","ept":0.005,"lat":37.324475000,"lon":-121.924723333,"alt":32.700,"epx":10.684,"epy":18.391,"epv":71.300,"track":165.7000,"speed":0.617,"climb":0.000,"eps":735.65,"epc":2852.00}
{"class":"TPV","device":"/dev/tty96B1","mode":3,"time":"2018-08-31T15:37:26.695Z","ept":0.005,"lat":37.324475000,"lon":-121.924723333,"alt":32.700,"epx":10.684,"epy":18.391,"epv":71.300,"track":165.7000,"speed":0.463,"climb":0.000,"eps":735.65,"epc":2852.00}
{"class":"TPV","device":"/dev/tty96B1","mode":3,"time":"2018-08-31T15:37:26.745Z","ept":0.005,"lat":37.324475000,"lon":-121.924723333,"alt":32.700,"epx":10.684,"epy":18.391,"epv":71.300,"track":165.7000,"speed":0.360,"climb":0.000,"eps":735.65,"epc":2852.00}
{"class":"TPV","device":"/dev/tty96B1","mode":3,"time":"2018-08-31T15:37:26.795Z","ept":0.005,"lat":37.324475000,"lon":-121.924723333,"alt":32.700,"epx":10.684,"epy":18.391,"epv":71.300,"track":165.7000,"speed":0.309,"climb":0.000,"eps":735.65,"epc":2851.99}
{"class":"SKY","device":"/dev/tty96B1","xdop":0.71,"ydop":1.23,"vdop":2.00,"tdop":1.54,"hdop":1.40,"gdop":2.91,"pdop":2.50,"satellites":[{"PRN":2,"el":62,"az":183,"ss":23,"used":true},{"PRN":6,"el":59,"az":66,"ss":28,"used":true},{"PRN":12,"el":56,"az":325,"ss":28,"used":true},{"PRN":24,"el":52,"az":237,"ss":25,"used":true},{"PRN":19,"el":43,"az":47,"ss":23,"used":true},{"PRN":17,"el":19,"az":59,"ss":21,"used":true},{"PRN":25,"el":15,"az":307,"ss":24,"used":true},{"PRN":29,"el":1,"az":253,"ss":0,"used":false},{"PRN":28,"el":0,"az":116,"ss":0,"used":false},{"PRN":32,"el":0,"az":312,"ss":0,"used":false},{"PRN":3,"el":0,"az":29,"ss":0,"used":false},{"PRN":5,"el":0,"az":166,"ss":0,"used":false}]}
{"class":"TPV","device":"/dev/tty96B1","mode":3,"time":"2018-08-31T15:37:26.845Z","ept":0.005,"lat":37.324475000,"lon":-121.924723333,"alt":32.700,"epx":10.684,"epy":18.391,"epv":71.300,"track":165.7000,"speed":0.257,"climb":0.000,"eps":735.65,"epc":2852.00}
{"class":"TPV","device":"/dev/tty96B1","mode":3,"time":"2018-08-31T15:37:26.895Z","ept":0.005,"lat":37.324475000,"lon":-121.924723333,"alt":32.700,"epx":10.684,"epy":18.391,"epv":46.000,"track":165.7000,"speed":0.360,"climb":0.000,"eps":735.65,"epc":2346.00}
{"class":"TPV","device":"/dev/tty96B1","mode":3,"time":"2018-08-31T15:37:26.945Z","ept":0.005,"lat":37.324475000,"lon":-121.924723333,"alt":32.700,"epx":10.684,"epy":18.391,"epv":46.000,"track":165.7000,"speed":0.463,"climb":0.000,"eps":735.65,"epc":1840.00}
{"class":"TPV","device":"/dev/tty96B1","mode":3,"time":"2018-08-31T15:37:26.995Z","ept":0.005,"lat":37.324475000,"lon":-121.924723333,"alt":32.700,"epx":10.684,"epy":18.391,"epv":46.000,"track":165.7000,"speed":0.669,"climb":0.000,"eps":735.65,"epc":1840.00}
{"class":"TPV","device":"/dev/tty96B1","mode":3,"time":"2018-08-31T15:37:27.045Z","ept":0.005,"lat":37.324475000,"lon":-121.924723333,"alt":32.700,"epx":10.684,"epy":18.391,"epv":46.000,"track":165.7000,"speed":0.875,"climb":0.000,"eps":735.65,"epc":1839.99}
{"class":"TPV","device":"/dev/tty96B1","mode":3,"time":"2018-08-31T15:37:27.095Z","ept":0.005,"lat":37.324475000,"lon":-121.924723333,"alt":32.700,"epx":10.684,"epy":18.391,"epv":46.000,"track":165.7000,"speed":0.772,"climb":0.000,"eps":735.65,"epc":1840.00}
{"class":"TPV","device":"/dev/tty96B1","mode":3,"time":"2018-08-31T15:37:27.145Z","ept":0.005,"lat":37.324475000,"lon":-121.924723333,"alt":32.700,"epx":10.684,"epy":18.391,"epv":46.000,"track":165.7000,"speed":0.772,"climb":0.000,"eps":735.65,"epc":1840.00}
{"class":"TPV","device":"/dev/tty96B1","mode":3,"time":"2018-08-31T15:37:27.195Z","ept":0.005,"lat":37.324475000,"lon":-121.924723333,"alt":32.700,"epx":10.684,"epy":18.391,"epv":46.000,"track":165.7000,"speed":0.977,"climb":0.000,"eps":735.65,"epc":1840.00}
{"class":"TPV","device":"/dev/tty96B1","mode":3,"time":"2018-08-31T15:37:27.245Z","ept":0.005,"lat":37.324475000,"lon":-121.924723333,"alt":32.700,"epx":10.684,"epy":18.391,"epv":46.000,"track":165.7000,"speed":1.132,"climb":0.000,"eps":735.65,"epc":1840.00}
{"class":"TPV","device":"/dev/tty96B1","mode":3,"time":"2018-08-31T15:37:27.295Z","ept":0.005,"lat":37.324475000,"lon":-121.924723333,"alt":32.700,"epx":10.684,"epy":18.391,"epv":46.000,"track":165.7000,"speed":0.977,"climb":0.000,"eps":735.65,"epc":1839.99}
{"class":"TPV","device":"/dev/tty96B1","mode":3,"time":"2018-08-31T15:37:27.345Z","ept":0.005,"lat":37.324475000,"lon":-121.924723333,"alt":32.700,"epx":10.684,"epy":18.391,"epv":46.000,"track":165.7000,"speed":0.823,"climb":0.000,"eps":735.65,"epc":1840.00}
{"class":"TPV","device":"/dev/tty96B1","mode":3,"time":"2018-08-31T15:37:27.395Z","ept":0.005,"lat":37.324475000,"lon":-121.924723333,"alt":32.700,"epx":10.684,"epy":18.391,"epv":46.000,"track":165.7000,"speed":0.823,"climb":0.000,"eps":735.65,"epc":1840.00}
{"class":"TPV","device":"/dev/tty96B1","mode":3,"time":"2018-08-31T15:37:27.445Z","ept":0.005,"lat":37.324475000,"lon":-121.924723333,"alt":32.700,"epx":10.684,"epy":18.391,"epv":46.000,"track":165.7000,"speed":0.926,"climb":0.000,"eps":735.65,"epc":1840.00}
{"class":"TPV","device":"/dev/tty96B1","mode":3,"time":"2018-08-31T15:37:27.495Z","ept":0.005,"lat":37.324475000,"lon":-121.924723333,"alt":32.700,"epx":10.684,"epy":18.391,"epv":46.000,"track":165.7000,"speed":1.080,"climb":0.000,"eps":735.65,"epc":1840.00}
{"class":"TPV","device":"/dev/tty96B1","mode":3,"time":"2018-08-31T15:37:27.545Z","ept":0.005,"lat":37.324475000,"lon":-121.924723333,"alt":32.700,"epx":10.684,"epy":18.391,"epv":46.000,"track":165.7000,"speed":1.183,"climb":0.000,"eps":735.65,"epc":1839.99}
{"class":"TPV","device":"/dev/tty96B1","mode":3,"time":"2018-08-31T15:37:27.595Z","ept":0.005,"lat":37.324475000,"lon":-121.924723333,"alt":32.700,"epx":10.684,"epy":18.391,"epv":46.000,"track":165.7000,"speed":1.132,"climb":0.000,"eps":735.65,"epc":1840.00}
{"class":"TPV","device":"/dev/tty96B1","mode":3,"time":"2018-08-31T15:37:27.645Z","ept":0.005,"lat":37.324475000,"lon":-121.924723333,"alt":32.700,"epx":10.684,"epy":18.391,"epv":46.000,"track":165.7000,"speed":1.029,"climb":0.000,"eps":735.65,"epc":1840.00}
{"class":"TPV","device":"/dev/tty96B1","mode":3,"time":"2018-08-31T15:37:27.695Z","ept":0.005,"lat":37.324475000,"lon":-121.924723333,"alt":32.700,"epx":10.684,"epy":18.391,"epv":46.000,"track":165.7000,"speed":1.029,"climb":0.000,"eps":735.65,"epc":1840.00}
{"class":"TPV","device":"/dev/tty96B1","mode":3,"time":"2018-08-31T15:37:27.745Z","ept":0.005,"lat":37.324475000,"lon":-121.924723333,"alt":32.700,"epx":10.684,"epy":18.391,"epv":46.000,"track":165.7000,"speed":1.029,"climb":0.000,"eps":735.65,"epc":1840.00}
{"class":"TPV","device":"/dev/tty96B1","mode":3,"time":"2018-08-31T15:37:27.795Z","ept":0.005,"lat":37.324475000,"lon":-121.924723333,"alt":32.700,"epx":10.684,"epy":18.391,"epv":46.000,"track":165.7000,"speed":0.977,"climb":0.000,"eps":735.65,"epc":1839.99}
{"class":"SKY","device":"/dev/tty96B1","xdop":0.71,"ydop":1.23,"vdop":2.00,"tdop":1.54,"hdop":1.40,"gdop":2.91,"pdop":2.50,"satellites":[{"PRN":2,"el":62,"az":183,"ss":24,"used":true},{"PRN":6,"el":59,"az":66,"ss":26,"used":true},{"PRN":12,"el":56,"az":325,"ss":30,"used":true},{"PRN":24,"el":52,"az":237,"ss":27,"used":true},{"PRN":19,"el":43,"az":47,"ss":21,"used":true},{"PRN":17,"el":19,"az":59,"ss":24,"used":true},{"PRN":25,"el":15,"az":307,"ss":22,"used":true},{"PRN":29,"el":1,"az":253,"ss":0,"used":false},{"PRN":28,"el":0,"az":116,"ss":0,"used":false},{"PRN":32,"el":0,"az":312,"ss":0,"used":false},{"PRN":3,"el":0,"az":29,"ss":0,"used":false},{"PRN":5,"el":0,"az":166,"ss":0,"used":false}]}
{"class":"TPV","device":"/dev/tty96B1","mode":3,"time":"2018-08-31T15:37:27.845Z","ept":0.005,"lat":37.324475000,"lon":-121.924723333,"alt":32.700,"epx":10.684,"epy":18.391,"epv":46.000,"track":165.7000,"speed":0.875,"climb":0.000,"eps":735.65,"epc":1840.00}
{"class":"TPV","device":"/dev/tty96B1","mode":3,"time":"2018-08-31T15:37:27.895Z","ept":0.005,"lat":37.324475000,"lon":-121.924723333,"alt":32.700,"epx":10.684,"epy":18.391,"epv":46.000,"track":165.7000,"speed":0.823,"climb":0.000,"eps":735.65,"epc":1840.00}
{"class":"TPV","device":"/dev/tty96B1","mode":3,"time":"2018-08-31T15:37:27.945Z","ept":0.005,"lat":37.324475000,"lon":-121.924723333,"alt":32.700,"epx":10.684,"epy":18.391,"epv":46.000,"track":165.7000,"speed":0.720,"climb":0.000,"eps":735.65,"epc":1840.00}
{"class":"TPV","device":"/dev/tty96B1","mode":3,"time":"2018-08-31T15:37:27.995Z","ept":0.005,"lat":37.324475000,"lon":-121.924723333,"alt":32.700,"epx":10.684,"epy":18.391,"epv":46.000,"track":165.7000,"speed":0.566,"climb":0.000,"eps":735.65,"epc":1840.00}
{"class":"TPV","device":"/dev/tty96B1","mode":3,"time":"2018-08-31T15:37:28.045Z","ept":0.005,"lat":37.324475000,"lon":-121.924723333,"alt":32.700,"epx":10.684,"epy":18.391,"epv":46.000,"track":165.7000,"speed":0.463,"climb":0.000,"eps":735.65,"epc":1839.99}
{"class":"TPV","device":"/dev/tty96B1","mode":3,"time":"2018-08-31T15:37:28.095Z","ept":0.005,"lat":37.324475000,"lon":-121.924723333,"alt":32.700,"epx":10.684,"epy":18.391,"epv":46.000,"track":165.7000,"speed":0.617,"climb":0.000,"eps":735.65,"epc":1840.00}
{"class":"TPV","device":"/dev/tty96B1","mode":3,"time":"2018-08-31T15:37:28.145Z","ept":0.005,"lat":37.324475000,"lon":-121.924723333,"alt":32.700,"epx":10.684,"epy":18.391,"epv":46.000,"track":165.7000,"speed":0.720,"climb":0.000,"eps":735.65,"epc":1840.00}
{"class":"TPV","device":"/dev/tty96B1","mode":3,"time":"2018-08-31T15:37:28.195Z","ept":0.005,"lat":37.324475000,"lon":-121.924723333,"alt":32.700,"epx":10.684,"epy":18.391,"epv":46.000,"track":165.7000,"speed":0.669,"climb":0.000,"eps":735.65,"epc":1840.00}
{"class":"TPV","device":"/dev/tty96B1","mode":3,"time":"2018-08-31T15:37:28.245Z","ept":0.005,"lat":37.324475000,"lon":-121.924723333,"alt":32.700,"epx":10.684,"epy":18.391,"epv":46.000,"track":165.7000,"speed":0.514,"climb":0.000,"eps":735.65,"epc":1840.00}
{"class":"TPV","device":"/dev/tty96B1","mode":3,"time":"2018-08-31T15:37:28.295Z","ept":0.005,"lat":37.324475000,"lon":-121.924723333,"alt":32.700,"epx":10.684,"epy":18.391,"epv":46.000,"track":165.7000,"speed":0.412,"climb":0.000,"eps":735.65,"epc":1839.99}
{"class":"TPV","device":"/dev/tty96B1","mode":3,"time":"2018-08-31T15:37:28.345Z","ept":0.005,"lat":37.324475000,"lon":-121.924723333,"alt":32.700,"epx":10.684,"epy":18.391,"epv":46.000,"track":165.7000,"speed":0.309,"climb":0.000,"eps":735.65,"epc":1840.00}
{"class":"TPV","device":"/dev/tty96B1","mode":3,"time":"2018-08-31T15:37:28.395Z","ept":0.005,"lat":37.324475000,"lon":-121.924723333,"alt":32.700,"epx":10.684,"epy":18.391,"epv":46.000,"track":165.7000,"speed":0.257,"climb":0.000,"eps":735.65,"epc":1840.00}
{"class":"TPV","device":"/dev/tty96B1","mode":3,"time":"2018-08-31T15:37:28.445Z","ept":0.005,"lat":37.324475000,"lon":-121.924723333,"alt":32.700,"epx":10.684,"epy":18.391,"epv":46.000,"track":165.7000,"speed":0.206,"climb":0.000,"eps":735.65,"epc":1840.00}
{"class":"TPV","device":"/dev/tty96B1","mode":3,"time":"2018-08-31T15:37:28.495Z","ept":0.005,"lat":37.324475000,"lon":-121.924723333,"alt":32.700,"epx":10.684,"epy":18.391,"epv":46.000,"track":165.7000,"speed":0.412,"climb":0.000,"eps":735.65,"epc":1840.00}
{"class":"TPV","device":"/dev/tty96B1","mode":3,"time":"2018-08-31T15:37:28.545Z","ept":0.005,"lat":37.324475000,"lon":-121.924723333,"alt":32.700,"epx":10.684,"epy":18.391,"epv":46.000,"track":165.7000,"speed":0.566,"climb":0.000,"eps":735.65,"epc":1839.99}
{"class":"TPV","device":"/dev/tty96B1","mode":3,"time":"2018-08-31T15:37:28.595Z","ept":0.005,"lat":37.324475000,"lon":-121.924723333,"alt":32.700,"epx":10.684,"epy":18.391,"epv":46.000,"track":165.7000,"speed":0.514,"climb":0.000,"eps":735.65,"epc":1840.00}
{"class":"TPV","device":"/dev/tty96B1","mode":3,"time":"2018-08-31T15:37:28.645Z","ept":0.005,"lat":37.324475000,"lon":-121.924723333,"alt":32.700,"epx":10.684,"epy":18.391,"epv":46.000,"track":165.7000,"speed":0.412,"climb":0.000,"eps":735.65,"epc":1840.00}
{"class":"TPV","device":"/dev/tty96B1","mode":3,"time":"2018-08-31T15:37:28.695Z","ept":0.005,"lat":37.324475000,"lon":-121.924723333,"alt":32.700,"epx":10.684,"epy":18.391,"epv":46.000,"track":165.7000,"speed":0.309,"climb":0.000,"eps":735.65,"epc":1840.00}
{"class":"TPV","device":"/dev/tty96B1","mode":3,"time":"2018-08-31T15:37:28.745Z","ept":0.005,"lat":37.324475000,"lon":-121.924723333,"alt":32.700,"epx":10.684,"epy":18.391,"epv":46.000,"track":165.7000,"speed":0.257,"climb":0.000,"eps":735.65,"epc":1840.00}
{"class":"TPV","device":"/dev/tty96B1","mode":3,"time":"2018-08-31T15:37:28.795Z","ept":0.005,"lat":37.324475000,"lon":-121.924723333,"alt":32.700,"epx":10.684,"epy":18.391,"epv":46.000,"track":165.7000,"speed":0.309,"climb":0.000,"eps":735.65,"epc":1839.99}
{"class":"SKY","device":"/dev/tty96B1","xdop":0.71,"ydop":1.23,"vdop":2.00,"tdop":1.54,"hdop":1.40,"gdop":2.91,"pdop":2.50,"satellites":[{"PRN":2,"el":62,"az":183,"ss":28,"used":true},{"PRN":6,"el":59,"az":66,"ss":29,"used":true},{"PRN":12,"el":56,"az":325,"ss":32,"used":true},{"PRN":24,"el":52,"az":237,"ss":26,"used":true},{"PRN":19,"el":43,"az":47,"ss":28,"used":true},{"PRN":17,"el":19,"az":59,"ss":23,"used":true},{"PRN":25,"el":15,"az":307,"ss":23,"used":true},{"PRN":29,"el":1,"az":253,"ss":0,"used":false},{"PRN":28,"el":0,"az":116,"ss":0,"used":false},{"PRN":32,"el":0,"az":312,"ss":0,"used":false},{"PRN":3,"el":0,"az":29,"ss":0,"used":false},{"PRN":5,"el":0,"az":166,"ss":0,"used":false}]}
{"class":"TPV","device":"/dev/tty96B1","mode":3,"time":"2018-08-31T15:37:28.845Z","ept":0.005,"lat":37.324475000,"lon":-121.924723333,"alt":32.700,"epx":10.684,"epy":18.391,"epv":46.000,"track":165.7000,"speed":0.360,"climb":0.000,"eps":735.65,"epc":1840.00}
{"class":"TPV","device":"/dev/tty96B1","mode":3,"time":"2018-08-31T15:37:28.895Z","ept":0.005,"lat":37.324475000,"lon":-121.924723333,"alt":32.700,"epx":10.684,"epy":18.391,"epv":46.000,"track":165.7000,"speed":0.463,"climb":0.000,"eps":735.65,"epc":1840.00}
{"class":"TPV","device":"/dev/tty96B1","mode":3,"time":"2018-08-31T15:37:28.945Z","ept":0.005,"lat":37.324475000,"lon":-121.924723333,"alt":32.700,"epx":10.684,"epy":18.391,"epv":46.000,"track":165.7000,"speed":0.566,"climb":0.000,"eps":735.65,"epc":1840.00}
{"class":"TPV","device":"/dev/tty96B1","mode":3,"time":"2018-08-31T15:37:28.995Z","ept":0.005,"lat":37.324475000,"lon":-121.924723333,"alt":32.700,"epx":10.684,"epy":18.391,"epv":46.000,"track":165.7000,"speed":0.463,"climb":0.000,"eps":735.65,"epc":1840.00}
{"class":"TPV","device":"/dev/tty96B1","mode":3,"time":"2018-08-31T15:37:29.045Z","ept":0.005,"lat":37.324475000,"lon":-121.924723333,"alt":32.700,"epx":10.684,"epy":18.391,"epv":46.000,"track":165.7000,"speed":0.412,"climb":0.000,"eps":735.65,"epc":1839.99}
{"class":"TPV","device":"/dev/tty96B1","mode":3,"time":"2018-08-31T15:37:29.095Z","ept":0.005,"lat":37.324475000,"lon":-121.924723333,"alt":32.700,"epx":10.684,"epy":18.391,"epv":46.000,"track":165.7000,"speed":0.669,"climb":0.000,"eps":735.65,"epc":1840.00}
{"class":"TPV","device":"/dev/tty96B1","mode":3,"time":"2018-08-31T15:37:29.145Z","ept":0.005,"lat":37.324475000,"lon":-121.924723333,"alt":32.700,"epx":10.684,"epy":18.391,"epv":46.000,"track":165.7000,"speed":0.926,"climb":0.000,"eps":735.65,"epc":1840.00}
{"class":"TPV","device":"/dev/tty96B1","mode":3,"time":"2018-08-31T15:37:29.195Z","ept":0.005,"lat":37.324475000,"lon":-121.924723333,"alt":32.700,"epx":10.684,"epy":18.391,"epv":46.000,"track":165.7000,"speed":0.977,"climb":0.000,"eps":735.65,"epc":1840.00}
{"class":"TPV","device":"/dev/tty96B1","mode":3,"time":"2018-08-31T15:37:29.245Z","ept":0.005,"lat":37.324475000,"lon":-121.924723333,"alt":32.700,"epx":10.684,"epy":18.391,"epv":46.000,"track":165.7000,"speed":0.926,"climb":0.000,"eps":735.65,"epc":1840.00}
{"class":"TPV","device":"/dev/tty96B1","mode":3,"time":"2018-08-31T15:37:29.295Z","ept":0.005,"lat":37.324475000,"lon":-121.924723333,"alt":32.700,"epx":10.684,"epy":18.391,"epv":46.000,"track":165.7000,"speed":0.772,"climb":0.000,"eps":735.65,"epc":1839.99}
{"class":"TPV","device":"/dev/tty96B1","mode":3,"time":"2018-08-31T15:37:29.345Z","ept":0.005,"lat":37.324475000,"lon":-121.924723333,"alt":32.700,"epx":10.684,"epy":18.391,"epv":46.000,"track":165.7000,"speed":0.617,"climb":0.000,"eps":735.65,"epc":1840.00}
{"class":"TPV","device":"/dev/tty96B1","mode":3,"time":"2018-08-31T15:37:29.395Z","ept":0.005,"lat":37.324475000,"lon":-121.924723333,"alt":32.700,"epx":10.684,"epy":18.391,"epv":46.000,"track":165.7000,"speed":0.617,"climb":0.000,"eps":735.65,"epc":1840.00}
{"class":"TPV","device":"/dev/tty96B1","mode":3,"time":"2018-08-31T15:37:29.445Z","ept":0.005,"lat":37.324475000,"lon":-121.924723333,"alt":32.700,"epx":10.684,"epy":18.391,"epv":46.000,"track":165.7000,"speed":0.669,"climb":0.000,"eps":735.65,"epc":1840.00}
{"class":"TPV","device":"/dev/tty96B1","mode":3,"time":"2018-08-31T15:37:29.495Z","ept":0.005,"lat":37.324475000,"lon":-121.924723333,"alt":32.700,"epx":10.684,"epy":18.391,"epv":46.000,"track":165.7000,"speed":0.669,"climb":0.000,"eps":735.65,"epc":1840.00}
{"class":"TPV","device":"/dev/tty96B1","mode":3,"time":"2018-08-31T15:37:29.545Z","ept":0.005,"lat":37.324475000,"lon":-121.924723333,"alt":32.700,"epx":10.684,"epy":18.391,"epv":46.000,"track":165.7000,"speed":0.617,"climb":0.000,"eps":735.65,"epc":1839.99}
{"class":"TPV","device":"/dev/tty96B1","mode":3,"time":"2018-08-31T15:37:29.595Z","ept":0.005,"lat":37.324475000,"lon":-121.924723333,"alt":32.700,"epx":10.684,"epy":18.391,"epv":46.000,"track":165.7000,"speed":0.720,"climb":0.000,"eps":735.65,"epc":1840.00}
{"class":"TPV","device":"/dev/tty96B1","mode":3,"time":"2018-08-31T15:37:29.645Z","ept":0.005,"lat":37.324475000,"lon":-121.924723333,"alt":32.700,"epx":10.684,"epy":18.391,"epv":46.000,"track":165.7000,"speed":0.875,"climb":0.000,"eps":735.65,"epc":1840.00}
{"class":"TPV","device":"/dev/tty96B1","mode":3,"time":"2018-08-31T15:37:29.695Z","ept":0.005,"lat":37.324475000,"lon":-121.924723333,"alt":32.700,"epx":10.684,"epy":18.391,"epv":46.000,"track":165.7000,"speed":1.080,"climb":0.000,"eps":735.65,"epc":1840.00}
{"class":"TPV","device":"/dev/tty96B1","mode":3,"time":"2018-08-31T15:37:29.745Z","ept":0.005,"lat":37.324475000,"lon":-121.924723333,"alt":32.700,"epx":10.684,"epy":18.391,"epv":46.000,"track":165.7000,"speed":1.235,"climb":0.000,"eps":735.65,"epc":1840.00}
{"class":"TPV","device":"/dev/tty96B1","mode":3,"time":"2018-08-31T15:37:29.795Z","ept":0.005,"lat":37.324475000,"lon":-121.924723333,"alt":32.700,"epx":10.684,"epy":18.391,"epv":46.000,"track":165.7000,"speed":1.029,"climb":0.000,"eps":735.65,"epc":1839.99}
{"class":"SKY","device":"/dev/tty96B1","xdop":0.71,"ydop":1.23,"vdop":2.00,"tdop":1.54,"hdop":1.40,"gdop":2.91,"pdop":2.50,"satellites":[{"PRN":2,"el":62,"az":183,"ss":25,"used":true},{"PRN":6,"el":59,"az":66,"ss":31,"used":true},{"PRN":12,"el":56,"az":325,"ss":36,"used":true},{"PRN":24,"el":52,"az":237,"ss":24,"used":true},{"PRN":19,"el":43,"az":47,"ss":28,"used":true},{"PRN":17,"el":19,"az":59,"ss":26,"used":true},{"PRN":25,"el":15,"az":307,"ss":23,"used":true},{"PRN":29,"el":1,"az":253,"ss":0,"used":false},{"PRN":28,"el":0,"az":116,"ss":0,"used":false},{"PRN":32,"el":0,"az":312,"ss":0,"used":false},{"PRN":3,"el":0,"az":29,"ss":0,"used":false},{"PRN":5,"el":0,"az":166,"ss":0,"used":false}]}
{"class":"TPV","device":"/dev/tty96B1","mode":3,"time":"2018-08-31T15:37:29.845Z","ept":0.005,"lat":37.324475000,"lon":-121.924723333,"alt":32.700,"epx":10.684,"epy":18.391,"epv":46.000,"track":165.7000,"speed":0.772,"climb":0.000,"eps":735.65,"epc":1840.00}
{"class":"TPV","device":"/dev/tty96B1","mode":3,"time":"2018-08-31T15:37:29.895Z","ept":0.005,"lat":37.324475000,"lon":-121.924723333,"alt":32.700,"epx":10.684,"epy":18.391,"epv":46.000,"track":165.7000,"speed":0.772,"climb":0.000,"eps":735.65,"epc":1840.00}
{"class":"TPV","device":"/dev/tty96B1","mode":3,"time":"2018-08-31T15:37:29.945Z","ept":0.005,"lat":37.324475000,"lon":-121.924723333,"alt":32.700,"epx":10.684,"epy":18.391,"epv":46.000,"track":165.7000,"speed":0.720,"climb":0.000,"eps":735.65,"epc":1840.00}
{"class":"TPV","device":"/dev/tty96B1","mode":3,"time":"2018-08-31T15:37:29.995Z","ept":0.005,"lat":37.324475000,"lon":-121.924723333,"alt":32.700,"epx":10.684,"epy":18.391,"epv":46.000,"track":165.7000,"speed":0.617,"climb":0.000,"eps":735.65,"epc":1840.00}
{"class":"TPV","device":"/dev/tty96B1","mode":3,"time":"2018-08-31T15:37:30.045Z","ept":0.005,"lat":37.324475000,"lon":-121.924723333,"alt":32.700,"epx":10.684,"epy":18.391,"epv":46.000,"track":165.7000,"speed":0.514,"climb":0.000,"eps":735.65,"epc":1839.99}
{"class":"TPV","device":"/dev/tty96B1","mode":3,"time":"2018-08-31T15:37:30.095Z","ept":0.005,"lat":37.324475000,"lon":-121.924723333,"alt":32.700,"epx":10.684,"epy":18.391,"epv":46.000,"track":165.7000,"speed":0.412,"climb":0.000,"eps":735.65,"epc":1840.00}
{"class":"TPV","device":"/dev/tty96B1","mode":3,"time":"2018-08-31T15:37:30.145Z","ept":0.005,"lat":37.324475000,"lon":-121.924723333,"alt":32.700,"epx":10.684,"epy":18.391,"epv":46.000,"track":165.7000,"speed":0.463,"climb":0.000,"eps":735.65,"epc":1840.00}
{"class":"TPV","device":"/dev/tty96B1","mode":3,"time":"2018-08-31T15:37:30.195Z","ept":0.005,"lat":37.324475000,"lon":-121.924723333,"alt":32.700,"epx":10.684,"epy":18.391,"epv":46.000,"track":165.7000,"speed":0.669,"climb":0.000,"eps":735.65,"epc":1840.00}
{"class":"TPV","device":"/dev/tty96B1","mode":3,"time":"2018-08-31T15:37:30.245Z","ept":0.005,"lat":37.324475000,"lon":-121.924723333,"alt":32.700,"epx":10.684,"epy":18.391,"epv":46.000,"track":165.7000,"speed":0.875,"climb":0.000,"eps":735.65,"epc":1840.00}
{"class":"TPV","device":"/dev/tty96B1","mode":3,"time":"2018-08-31T15:37:30.295Z","ept":0.005,"lat":37.324475000,"lon":-121.924723333,"alt":32.700,"epx":10.684,"epy":18.391,"epv":46.000,"track":165.7000,"speed":0.875,"climb":0.000,"eps":735.65,"epc":1839.99}
{"class":"TPV","device":"/dev/tty96B1","mode":3,"time":"2018-08-31T15:37:30.345Z","ept":0.005,"lat":37.324475000,"lon":-121.924723333,"alt":32.700,"epx":10.684,"epy":18.391,"epv":46.000,"track":165.7000,"speed":0.823,"climb":0.000,"eps":735.65,"epc":1840.00}
{"class":"TPV","device":"/dev/tty96B1","mode":3,"time":"2018-08-31T15:37:30.395Z","ept":0.005,"lat":37.324475000,"lon":-121.924723333,"alt":32.700,"epx":10.684,"epy":18.391,"epv":46.000,"track":165.7000,"speed":0.823,"climb":0.000,"eps":735.65,"epc":1840.00}
{"class":"TPV","device":"/dev/tty96B1","mode":3,"time":"2018-08-31T15:37:30.445Z","ept":0.005,"lat":37.324475000,"lon":-121.924723333,"alt":32.700,"epx":10.684,"epy":18.391,"epv":46.000,"track":165.7000,"speed":0.926,"climb":0.000,"eps":735.65,"epc":1840.00}
{"class":"TPV","device":"/dev/tty96B1","mode":3,"time":"2018-08-31T15:37:30.495Z","ept":0.005,"lat":37.324475000,"lon":-121.924723333,"alt":32.700,"epx":10.684,"epy":18.391,"epv":46.000,"track":165.7000,"speed":1.029,"climb":0.000,"eps":735.65,"epc":1840.00}
{"class":"TPV","device":"/dev/tty96B1","mode":3,"time":"2018-08-31T15:37:30.545Z","ept":0.005,"lat":37.324475000,"lon":-121.924723333,"alt":32.700,"epx":10.684,"epy":18.391,"epv":46.000,"track":165.7000,"speed":1.132,"climb":0.000,"eps":735.65,"epc":1839.99}
{"class":"TPV","device":"/dev/tty96B1","mode":3,"time":"2018-08-31T15:37:30.595Z","ept":0.005,"lat":37.324475000,"lon":-121.924723333,"alt":32.700,"epx":10.684,"epy":18.391,"epv":46.000,"track":165.7000,"speed":1.235,"climb":0.000,"eps":735.65,"epc":1840.00}
{"class":"TPV","device":"/dev/tty96B1","mode":3,"time":"2018-08-31T15:37:30.645Z","ept":0.005,"lat":37.324475000,"lon":-121.924723333,"alt":32.700,"epx":10.684,"epy":18.391,"epv":46.000,"track":165.7000,"speed":1.286,"climb":0.000,"eps":735.65,"epc":1840.00}
{"class":"TPV","device":"/dev/tty96B1","mode":3,"time":"2018-08-31T15:37:30.695Z","ept":0.005,"lat":37.324475000,"lon":-121.924723333,"alt":32.700,"epx":10.684,"epy":18.391,"epv":46.000,"track":165.7000,"speed":1.286,"climb":0.000,"eps":735.65,"epc":1840.00}
{"class":"TPV","device":"/dev/tty96B1","mode":3,"time":"2018-08-31T15:37:30.745Z","ept":0.005,"lat":37.324475000,"lon":-121.924723333,"alt":32.700,"epx":10.684,"epy":18.391,"epv":46.000,"track":165.7000,"speed":1.235,"climb":0.000,"eps":735.65,"epc":1840.00}
{"class":"TPV","device":"/dev/tty96B1","mode":3,"time":"2018-08-31T15:37:30.795Z","ept":0.005,"lat":37.324475000,"lon":-121.924723333,"alt":32.700,"epx":10.684,"epy":18.391,"epv":46.000,"track":165.7000,"speed":1.132,"climb":0.000,"eps":735.65,"epc":1839.99}
{"class":"SKY","device":"/dev/tty96B1","xdop":0.71,"ydop":1.23,"vdop":2.00,"tdop":1.54,"hdop":1.40,"gdop":2.91,"pdop":2.50,"satellites":[{"PRN":2,"el":62,"az":183,"ss":23,"used":true},{"PRN":6,"el":59,"az":65,"ss":27,"used":true},{"PRN":12,"el":56,"az":325,"ss":32,"used":true},{"PRN":24,"el":52,"az":237,"ss":24,"used":true},{"PRN":19,"el":43,"az":47,"ss":24,"used":true},{"PRN":17,"el":19,"az":59,"ss":23,"used":true},{"PRN":25,"el":15,"az":307,"ss":20,"used":true},{"PRN":29,"el":1,"az":253,"ss":0,"used":false},{"PRN":28,"el":0,"az":116,"ss":0,"used":false},{"PRN":32,"el":0,"az":312,"ss":0,"used":false},{"PRN":3,"el":0,"az":29,"ss":0,"used":false},{"PRN":5,"el":0,"az":166,"ss":0,"used":false}]}
{"class":"TPV","device":"/dev/tty96B1","mode":3,"time":"2018-08-31T15:37:30.845Z","ept":0.005,"lat":37.324475000,"lon":-121.924723333,"alt":32.700,"epx":10.684,"epy":18.391,"epv":46.000,"track":165.7000,"speed":1.080,"climb":0.000,"eps":735.65,"epc":1840.00}
{"class":"TPV","device":"/dev/tty96B1","mode":3,"time":"2018-08-31T15:37:30.895Z","ept":0.005,"lat":37.324475000,"lon":-121.924723333,"alt":32.700,"epx":10.684,"epy":18.391,"epv":46.000,"track":165.7000,"speed":1.183,"climb":0.000,"eps":735.65,"epc":1840.00}
{"class":"TPV","device":"/dev/tty96B1","mode":3,"time":"2018-08-31T15:37:30.945Z","ept":0.005,"lat":37.324475000,"lon":-121.924723333,"alt":32.700,"epx":10.684,"epy":18.391,"epv":46.000,"track":165.7000,"speed":1.286,"climb":0.000,"eps":735.65,"epc":1840.00}
{"class":"TPV","device":"/dev/tty96B1","mode":3,"time":"2018-08-31T15:37:30.995Z","ept":0.005,"lat":37.324475000,"lon":-121.924723333,"alt":32.700,"epx":10.684,"epy":18.391,"epv":46.000,"track":165.7000,"speed":1.132,"climb":0.000,"eps":735.65,"epc":1840.00}
{"class":"TPV","device":"/dev/tty96B1","mode":3,"time":"2018-08-31T15:37:31.045Z","ept":0.005,"lat":37.324475000,"lon":-121.924723333,"alt":32.700,"epx":10.684,"epy":18.391,"epv":46.000,"track":165.7000,"speed":0.977,"climb":0.000,"eps":735.65,"epc":1839.99}
{"class":"TPV","device":"/dev/tty96B1","mode":3,"time":"2018-08-31T15:37:31.095Z","ept":0.005,"lat":37.324475000,"lon":-121.924723333,"alt":32.700,"epx":10.684,"epy":18.391,"epv":46.000,"track":165.7000,"speed":1.132,"climb":0.000,"eps":735.65,"epc":1840.00}
{"class":"TPV","device":"/dev/tty96B1","mode":3,"time":"2018-08-31T15:37:31.145Z","ept":0.005,"lat":37.324475000,"lon":-121.924723333,"alt":32.700,"epx":10.684,"epy":18.391,"epv":46.000,"track":165.7000,"speed":1.338,"climb":0.000,"eps":735.65,"epc":1840.00}
{"class":"TPV","device":"/dev/tty96B1","mode":3,"time":"2018-08-31T15:37:31.195Z","ept":0.005,"lat":37.324475000,"lon":-121.924723333,"alt":32.700,"epx":10.684,"epy":18.391,"epv":46.000,"track":165.7000,"speed":1.543,"climb":0.000,"eps":735.65,"epc":1840.00}
{"class":"TPV","device":"/dev/tty96B1","mode":3,"time":"2018-08-31T15:37:31.245Z","ept":0.005,"lat":37.324475000,"lon":-121.924723333,"alt":32.700,"epx":10.684,"epy":18.391,"epv":46.000,"track":165.7000,"speed":1.749,"climb":0.000,"eps":735.65,"epc":1840.00}
{"class":"TPV","device":"/dev/tty96B1","mode":3,"time":"2018-08-31T15:37:31.295Z","ept":0.005,"lat":37.324475000,"lon":-121.924723333,"alt":32.700,"epx":10.684,"epy":18.391,"epv":46.000,"track":165.7000,"speed":1.801,"climb":0.000,"eps":735.65,"epc":1839.99}
{"class":"TPV","device":"/dev/tty96B1","mode":3,"time":"2018-08-31T15:37:31.345Z","ept":0.005,"lat":37.324475000,"lon":-121.924723333,"alt":32.700,"epx":10.684,"epy":18.391,"epv":46.000,"track":165.7000,"speed":1.749,"climb":0.000,"eps":735.65,"epc":1840.00}
{"class":"TPV","device":"/dev/tty96B1","mode":3,"time":"2018-08-31T15:37:31.395Z","ept":0.005,"lat":37.324475000,"lon":-121.924723333,"alt":32.700,"epx":10.684,"epy":18.391,"epv":46.000,"track":165.7000,"speed":1.595,"climb":0.000,"eps":735.65,"epc":1840.00}
{"class":"TPV","device":"/dev/tty96B1","mode":3,"time":"2018-08-31T15:37:31.445Z","ept":0.005,"lat":37.324475000,"lon":-121.924723333,"alt":32.700,"epx":10.684,"epy":18.391,"epv":46.000,"track":165.7000,"speed":1.440,"climb":0.000,"eps":735.65,"epc":1840.00}
{"class":"TPV","device":"/dev/tty96B1","mode":3,"time":"2018-08-31T15:37:31.495Z","ept":0.005,"lat":37.324475000,"lon":-121.924723333,"alt":32.700,"epx":10.684,"epy":18.391,"epv":46.000,"track":165.7000,"speed":1.338,"climb":0.000,"eps":735.65,"epc":1840.00}
{"class":"TPV","device":"/dev/tty96B1","mode":3,"time":"2018-08-31T15:37:31.545Z","ept":0.005,"lat":37.324475000,"lon":-121.924723333,"alt":32.700,"epx":10.684,"epy":18.391,"epv":46.000,"track":165.7000,"speed":1.235,"climb":0.000,"eps":735.65,"epc":1839.99}
{"class":"TPV","device":"/dev/tty96B1","mode":3,"time":"2018-08-31T15:37:31.595Z","ept":0.005,"lat":37.324475000,"lon":-121.924723333,"alt":32.700,"epx":10.684,"epy":18.391,"epv":46.000,"track":165.7000,"speed":1.235,"climb":0.000,"eps":735.65,"epc":1840.00}
{"class":"TPV","device":"/dev/tty96B1","mode":3,"time":"2018-08-31T15:37:31.645Z","ept":0.005,"lat":37.324475000,"lon":-121.924723333,"alt":32.700,"epx":10.684,"epy":18.391,"epv":46.000,"track":165.7000,"speed":1.235,"climb":0.000,"eps":735.65,"epc":1840.00}
{"class":"TPV","device":"/dev/tty96B1","mode":3,"time":"2018-08-31T15:37:31.695Z","ept":0.005,"lat":37.324475000,"lon":-121.924723333,"alt":32.700,"epx":10.684,"epy":18.391,"epv":46.000,"track":165.7000,"speed":1.183,"climb":0.000,"eps":735.65,"epc":1840.00}
{"class":"TPV","device":"/dev/tty96B1","mode":3,"time":"2018-08-31T15:37:31.745Z","ept":0.005,"lat":37.324475000,"lon":-121.924723333,"alt":32.700,"epx":10.684,"epy":18.391,"epv":46.000,"track":165.7000,"speed":1.132,"climb":0.000,"eps":735.65,"epc":1840.00}
