{"class":"VERSION","release":"3.16","rev":"3.16-4","proto_major":3,"proto_minor":11}
{"class":"DEVICES","devices":[{"class":"DEVICE","path":"/dev/tty96B1","activated":"2016-11-03T17:18:00.691Z","native":0,"bps":115200,"parity":"N","stopbits":1,"cycle":1.00}]}
{"class":"WATCH","enable":true,"json":true,"nmea":false,"raw":0,"scaled":false,"timing":false,"split24":false,"pps":false}
{"class":"DEVICE","path":"/dev/tty96B1","driver":"NMEA0183","activated":"2016-11-03T17:18:00.693Z","native":0,"bps":115200,"parity":"N","stopbits":1,"cycle":1.00}
{"class":"TPV","device":"/dev/tty96B1","mode":3,"lat":37.329150000,"lon":-121.925821667,"alt":45.300}
{"class":"TPV","device":"/dev/tty96B1","mode":3,"time":"2018-09-08T16:38:07.389Z","ept":0.005,"lat":37.329150000,"lon":-121.925821667,"alt":45.300,"track":208.9000,"speed":0.360}
{"class":"TPV","device":"/dev/tty96B1","mode":3,"time":"2018-09-08T16:38:07.439Z","ept":0.005,"lat":37.329150000,"lon":-121.925821667,"alt":45.300,"track":208.9000,"speed":0.412,"climb":0.000}
{"class":"TPV","device":"/dev/tty96B1","mode":3,"time":"2018-09-08T16:38:07.489Z","ept":0.005,"lat":37.329150000,"lon":-121.925821667,"alt":45.300,"track":208.9000,"speed":0.463,"climb":0.000}
{"class":"TPV","device":"/dev/tty96B1","mode":3,"time":"2018-09-08T16:38:07.539Z","ept":0.005,"lat":37.329150000,"lon":-121.925821667,"alt":45.300,"track":208.9000,"speed":0.463,"climb":0.000}
{"class":"TPV","device":"/dev/tty96B1","mode":3,"time":"2018-09-08T16:38:07.589Z","ept":0.005,"lat":37.329150000,"lon":-121.925821667,"alt":45.300,"track":208.9000,"speed":0.463,"climb":0.000}
{"class":"TPV","device":"/dev/tty96B1","mode":3,"time":"2018-09-08T16:38:07.639Z","ept":0.005,"lat":37.329150000,"lon":-121.925821667,"alt":45.300,"track":208.9000,"speed":0.463,"climb":0.000}
{"class":"TPV","device":"/dev/tty96B1","mode":3,"time":"2018-09-08T16:38:07.689Z","ept":0.005,"lat":37.329150000,"lon":-121.925821667,"alt":45.300,"track":208.9000,"speed":0.463,"climb":0.000}
{"class":"TPV","device":"/dev/tty96B1","mode":3,"time":"2018-09-08T16:38:07.739Z","ept":0.005,"lat":37.329150000,"lon":-121.925821667,"alt":45.300,"track":208.9000,"speed":0.566,"climb":0.000}
{"class":"TPV","device":"/dev/tty96B1","mode":3,"time":"2018-09-08T16:38:07.789Z","ept":0.005,"lat":37.329150000,"lon":-121.925821667,"alt":45.300,"track":208.9000,"speed":0.617,"climb":0.000}
{"class":"TPV","device":"/dev/tty96B1","mode":3,"time":"2018-09-08T16:38:07.839Z","ept":0.005,"lat":37.329150000,"lon":-121.925821667,"alt":45.400,"track":208.9000,"speed":0.720,"climb":2.000}
{"class":"TPV","device":"/dev/tty96B1","mode":3,"time":"2018-09-08T16:38:07.889Z","ept":0.005,"lat":37.329150000,"lon":-121.925821667,"alt":45.400,"track":208.9000,"speed":0.823,"climb":0.000}
{"class":"TPV","device":"/dev/tty96B1","mode":3,"time":"2018-09-08T16:38:07.939Z","ept":0.005,"lat":37.329150000,"lon":-121.925821667,"alt":45.400,"track":208.9000,"speed":0.720,"climb":0.000}
{"class":"SKY","device":"/dev/tty96B1","xdop":0.58,"ydop":0.63,"vdop":1.10,"tdop":0.69,"hdop":0.90,"gdop":1.57,"pdop":1.40,"satellites":[{"PRN":12,"el":79,"az":133,"ss":43,"used":true},{"PRN":2,"el":71,"az":42,"ss":32,"used":true},{"PRN":25,"el":54,"az":313,"ss":31,"used":true},{"PRN":5,"el":34,"az":143,"ss":41,"used":true},{"PRN":29,"el":28,"az":286,"ss":24,"used":true},{"PRN":6,"el":22,"az":45,"ss":33,"used":true},{"PRN":24,"el":17,"az":203,"ss":32,"used":true},{"PRN":19,"el":12,"az":78,"ss":19,"used":true},{"PRN":31,"el":7,"az":324,"ss":30,"used":true}]}
{"class":"TPV","device":"/dev/tty96B1","mode":3,"time":"2018-09-08T16:38:07.989Z","ept":0.005,"lat":37.329150000,"lon":-121.925821667,"alt":45.400,"epx":8.628,"epy":9.504,"epv":25.300,"track":208.9000,"speed":0.566,"climb":0.000}
{"class":"TPV","device":"/dev/tty96B1","mode":3,"time":"2018-09-08T16:38:08.039Z","ept":0.005,"lat":37.329150000,"lon":-121.925821667,"alt":45.400,"epx":8.628,"epy":9.504,"epv":25.300,"track":208.9000,"speed":0.463,"climb":0.000,"eps":380.14,"epc":1012.00}
{"class":"TPV","device":"/dev/tty96B1","mode":3,"time":"2018-09-08T16:38:08.089Z","ept":0.005,"lat":37.329150000,"lon":-121.925821667,"alt":45.400,"epx":8.628,"epy":9.504,"epv":25.300,"track":208.9000,"speed":0.412,"climb":0.000,"eps":380.14,"epc":1012.00}
{"class":"TPV","device":"/dev/tty96B1","mode":3,"time":"2018-09-08T16:38:08.139Z","ept":0.005,"lat":37.329150000,"lon":-121.925821667,"alt":45.400,"epx":8.628,"epy":9.504,"epv":25.300,"track":208.9000,"speed":0.309,"climb":0.000,"eps":380.14,"epc":1012.00}
{"class":"TPV","device":"/dev/tty96B1","mode":3,"time":"2018-09-08T16:38:08.189Z","ept":0.005,"lat":37.329150000,"lon":-121.925821667,"alt":45.400,"epx":8.628,"epy":9.504,"epv":25.300,"track":208.9000,"speed":0.257,"climb":0.000,"eps":380.14,"epc":1012.00}
{"class":"TPV","device":"/dev/tty96B1","mode":3,"time":"2018-09-08T16:38:08.239Z","ept":0.005,"lat":37.329150000,"lon":-121.925821667,"alt":45.400,"epx":8.628,"epy":9.504,"epv":25.300,"track":208.9000,"speed":0.206,"climb":0.000,"eps":380.14,"epc":1012.00}
{"class":"TPV","device":"/dev/tty96B1","mode":3,"time":"2018-09-08T16:38:08.289Z","ept":0.005,"lat":37.329150000,"lon":-121.925821667,"alt":45.400,"epx":8.628,"epy":9.504,"epv":25.300,"track":208.9000,"speed":0.206,"climb":0.000,"eps":380.14,"epc":1012.00}
{"class":"TPV","device":"/dev/tty96B1","mode":3,"time":"2018-09-08T16:38:08.339Z","ept":0.005,"lat":37.329150000,"lon":-121.925821667,"alt":45.400,"epx":8.628,"epy":9.504,"epv":25.300,"track":208.9000,"speed":0.154,"climb":0.000,"eps":380.14,"epc":1012.00}
{"class":"TPV","device":"/dev/tty96B1","mode":3,"time":"2018-09-08T16:38:08.389Z","ept":0.005,"lat":37.329150000,"lon":-121.925821667,"alt":45.400,"epx":8.628,"epy":9.504,"epv":25.300,"track":208.9000,"speed":0.154,"climb":0.000,"eps":380.14,"epc":1012.00}
{"class":"TPV","device":"/dev/tty96B1","mode":3,"time":"2018-09-08T16:38:08.439Z","ept":0.005,"lat":37.329150000,"lon":-121.925821667,"alt":45.400,"epx":8.628,"epy":9.504,"epv":25.300,"track":208.9000,"speed":0.103,"climb":0.000,"eps":380.14,"epc":1012.00}
{"class":"TPV","device":"/dev/tty96B1","mode":3,"time":"2018-09-08T16:38:08.489Z","ept":0.005,"lat":37.329150000,"lon":-121.925821667,"alt":45.400,"epx":8.628,"epy":9.504,"epv":25.300,"track":208.9000,"speed":0.103,"climb":0.000,"eps":380.14,"epc":1012.00}
{"class":"TPV","device":"/dev/tty96B1","mode":3,"time":"2018-09-08T16:38:08.539Z","ept":0.005,"lat":37.329150000,"lon":-121.925821667,"alt":45.400,"epx":8.628,"epy":9.504,"epv":25.300,"track":208.9000,"speed":0.154,"climb":0.000,"eps":380.14,"epc":1012.00}
{"class":"TPV","device":"/dev/tty96B1","mode":3,"time":"2018-09-08T16:38:08.589Z","ept":0.005,"lat":37.329150000,"lon":-121.925821667,"alt":45.400,"epx":8.628,"epy":9.504,"epv":25.300,"track":208.9000,"speed":0.154,"climb":0.000,"eps":380.14,"epc":1012.00}
{"class":"TPV","device":"/dev/tty96B1","mode":3,"time":"2018-09-08T16:38:08.639Z","ept":0.005,"lat":37.329150000,"lon":-121.925821667,"alt":45.400,"epx":8.628,"epy":9.504,"epv":25.300,"track":208.9000,"speed":0.154,"climb":0.000,"eps":380.14,"epc":1012.00}
{"class":"TPV","device":"/dev/tty96B1","mode":3,"time":"2018-09-08T16:38:08.689Z","ept":0.005,"lat":37.329150000,"lon":-121.925821667,"alt":45.400,"epx":8.628,"epy":9.504,"epv":25.300,"track":208.9000,"speed":0.154,"climb":0.000,"eps":380.14,"epc":1012.00}
{"class":"TPV","device":"/dev/tty96B1","mode":3,"time":"2018-09-08T16:38:08.739Z","ept":0.005,"lat":37.329150000,"lon":-121.925821667,"alt":45.400,"epx":8.628,"epy":9.504,"epv":25.300,"track":208.9000,"speed":0.103,"climb":0.000,"eps":380.14,"epc":1012.00}
{"class":"TPV","device":"/dev/tty96B1","mode":3,"time":"2018-09-08T16:38:08.789Z","ept":0.005,"lat":37.329150000,"lon":-121.925821667,"alt":45.400,"epx":8.628,"epy":9.504,"epv":25.300,"track":208.9000,"speed":0.103,"climb":0.000,"eps":380.14,"epc":1012.00}
{"class":"TPV","device":"/dev/tty96B1","mode":3,"time":"2018-09-08T16:38:08.839Z","ept":0.005,"lat":37.329150000,"lon":-121.925821667,"alt":45.400,"epx":8.628,"epy":9.504,"epv":25.300,"track":208.9000,"speed":0.206,"climb":0.000,"eps":380.14,"epc":1012.00}
{"class":"TPV","device":"/dev/tty96B1","mode":3,"time":"2018-09-08T16:38:08.889Z","ept":0.005,"lat":37.329150000,"lon":-121.925821667,"alt":45.400,"epx":8.628,"epy":9.504,"epv":25.300,"track":208.9000,"speed":0.257,"climb":0.000,"eps":380.14,"epc":1012.00}
{"class":"TPV","device":"/dev/tty96B1","mode":3,"time":"2018-09-08T16:38:08.939Z","ept":0.005,"lat":37.329150000,"lon":-121.925821667,"alt":45.400,"epx":8.628,"epy":9.504,"epv":25.300,"track":208.9000,"speed":0.257,"climb":0.000,"eps":380.14,"epc":1012.00}
{"class":"SKY","device":"/dev/tty96B1","xdop":0.58,"ydop":0.63,"vdop":1.10,"tdop":0.69,"hdop":0.90,"gdop":1.57,"pdop":1.40,"satellites":[{"PRN":12,"el":79,"az":133,"ss":44,"used":true},{"PRN":2,"el":71,"az":42,"ss":34,"used":true},{"PRN":25,"el":54,"az":313,"ss":32,"used":true},{"PRN":5,"el":34,"az":143,"ss":41,"used":true},{"PRN":29,"el":28,"az":286,"ss":26,"used":true},{"PRN":6,"el":22,"az":45,"ss":34,"used":true},{"PRN":24,"el":17,"az":203,"ss":34,"used":true},{"PRN":19,"el":12,"az":78,"ss":20,"used":true},{"PRN":31,"el":7,"az":324,"ss":31,"used":true}]}
{"class":"TPV","device":"/dev/tty96B1","mode":3,"time":"2018-09-08T16:38:08.989Z","ept":0.005,"lat":37.329150000,"lon":-121.925821667,"alt":45.400,"epx":8.628,"epy":9.504,"epv":25.300,"track":208.9000,"speed":0.206,"climb":0.000,"eps":380.14,"epc":1012.00}
{"class":"TPV","device":"/dev/tty96B1","mode":3,"time":"2018-09-08T16:38:09.039Z","ept":0.005,"lat":37.329150000,"lon":-121.925821667,"alt":45.400,"epx":8.628,"epy":9.504,"epv":25.300,"track":208.9000,"speed":0.103,"climb":0.000,"eps":380.14,"epc":1012.00}
{"class":"TPV","device":"/dev/tty96B1","mode":3,"time":"2018-09-08T16:38:09.089Z","ept":0.005,"lat":37.329150000,"lon":-121.925821667,"alt":45.400,"epx":8.628,"epy":9.504,"epv":25.300,"track":208.9000,"speed":0.000,"climb":0.000,"eps":380.14,"epc":1012.00}
{"class":"TPV","device":"/dev/tty96B1","mode":3,"time":"2018-09-08T16:38:09.139Z","ept":0.005,"lat":37.329150000,"lon":-121.925821667,"alt":45.400,"epx":8.628,"epy":9.504,"epv":25.300,"track":208.9000,"speed":0.000,"climb":0.000,"eps":380.14,"epc":1012.00}
{"class":"TPV","device":"/dev/tty96B1","mode":3,"time":"2018-09-08T16:38:09.189Z","ept":0.005,"lat":37.329150000,"lon":-121.925821667,"alt":45.400,"epx":8.628,"epy":9.504,"epv":25.300,"track":208.9000,"speed":0.000,"climb":0.000,"eps":380.14,"epc":1012.00}
{"class":"TPV","device":"/dev/tty96B1","mode":3,"time":"2018-09-08T16:38:09.239Z","ept":0.005,"lat":37.329150000,"lon":-121.925821667,"alt":45.400,"epx":8.628,"epy":9.504,"epv":25.300,"track":208.9000,"speed":0.000,"climb":0.000,"eps":380.14,"epc":1012.00}
{"class":"TPV","device":"/dev/tty96B1","mode":3,"time":"2018-09-08T16:38:09.289Z","ept":0.005,"lat":37.329150000,"lon":-121.925821667,"alt":45.400,"epx":8.628,"epy":9.504,"epv":25.300,"track":208.9000,"speed":0.000,"climb":0.000,"eps":380.14,"epc":1012.00}
{"class":"TPV","device":"/dev/tty96B1","mode":3,"time":"2018-09-08T16:38:09.339Z","ept":0.005,"lat":37.329150000,"lon":-121.925821667,"alt":45.400,"epx":8.628,"epy":9.504,"epv":25.300,"track":208.9000,"speed":0.000,"climb":0.000,"eps":380.14,"epc":1012.00}
{"class":"TPV","device":"/dev/tty96B1","mode":3,"time":"2018-09-08T16:38:09.389Z","ept":0.005,"lat":37.329150000,"lon":-121.925821667,"alt":45.400,"epx":8.628,"epy":9.504,"epv":25.300,"track":208.9000,"speed":0.000,"climb":0.000,"eps":380.14,"epc":1012.00}
{"class":"TPV","device":"/dev/tty96B1","mode":3,"time":"2018-09-08T16:38:09.439Z","ept":0.005,"lat":37.329150000,"lon":-121.925821667,"alt":45.400,"epx":8.628,"epy":9.504,"epv":25.300,"track":208.9000,"speed":0.000,"climb":0.000,"eps":380.14,"epc":1012.00}
{"class":"TPV","device":"/dev/tty96B1","mode":3,"time":"2018-09-08T16:38:09.489Z","ept":0.005,"lat":37.329150000,"lon":-121.925821667,"alt":45.400,"epx":8.628,"epy":9.504,"epv":25.300,"track":208.9000,"speed":0.000,"climb":0.000,"eps":380.14,"epc":1012.00}
{"class":"TPV","device":"/dev/tty96B1","mode":3,"time":"2018-09-08T16:38:09.539Z","ept":0.005,"lat":37.329150000,"lon":-121.925821667,"alt":45.400,"epx":8.628,"epy":9.504,"epv":25.300,"track":208.9000,"speed":0.000,"climb":0.000,"eps":380.14,"epc":1012.00}
{"class":"TPV","device":"/dev/tty96B1","mode":3,"time":"2018-09-08T16:38:09.589Z","ept":0.005,"lat":37.329150000,"lon":-121.925821667,"alt":45.400,"epx":8.628,"epy":9.504,"epv":25.300,"track":208.9000,"speed":0.000,"climb":0.000,"eps":380.14,"epc":1012.00}
{"class":"TPV","device":"/dev/tty96B1","mode":3,"time":"2018-09-08T16:38:09.639Z","ept":0.005,"lat":37.329150000,"lon":-121.925821667,"alt":45.400,"epx":8.628,"epy":9.504,"epv":25.300,"track":208.9000,"speed":0.000,"climb":0.000,"eps":380.14,"epc":1012.00}
{"class":"TPV","device":"/dev/tty96B1","mode":3,"time":"2018-09-08T16:38:09.689Z","ept":0.005,"lat":37.329150000,"lon":-121.925821667,"alt":45.400,"epx":8.628,"epy":9.504,"epv":25.300,"track":208.9000,"speed":0.000,"climb":0.000,"eps":380.14,"epc":1012.00}
{"class":"TPV","device":"/dev/tty96B1","mode":3,"time":"2018-09-08T16:38:09.739Z","ept":0.005,"lat":37.329150000,"lon":-121.925821667,"alt":45.400,"epx":8.628,"epy":9.504,"epv":25.300,"track":208.9000,"speed":0.000,"climb":0.000,"eps":380.14,"epc":1012.00}
{"class":"TPV","device":"/dev/tty96B1","mode":3,"time":"2018-09-08T16:38:09.789Z","ept":0.005,"lat":37.329150000,"lon":-121.925821667,"alt":45.400,"epx":8.628,"epy":9.504,"epv":25.300,"track":208.9000,"speed":0.000,"climb":0.000,"eps":380.14,"epc":1012.00}
{"class":"TPV","device":"/dev/tty96B1","mode":3,"time":"2018-09-08T16:38:09.839Z","ept":0.005,"lat":37.329150000,"lon":-121.925821667,"alt":45.400,"epx":8.628,"epy":9.504,"epv":25.300,"track":208.9000,"speed":0.000,"climb":0.000,"eps":380.14,"epc":1012.00}
{"class":"TPV","device":"/dev/tty96B1","mode":3,"time":"2018-09-08T16:38:09.889Z","ept":0.005,"lat":37.329150000,"lon":-121.925821667,"alt":45.400,"epx":8.628,"epy":9.504,"epv":25.300,"track":208.9000,"speed":0.000,"climb":0.000,"eps":380.14,"epc":1012.00}
{"class":"TPV","device":"/dev/tty96B1","mode":3,"time":"2018-09-08T16:38:09.939Z","ept":0.005,"lat":37.329150000,"lon":-121.925821667,"alt":45.400,"epx":8.628,"epy":9.504,"epv":25.300,"track":208.9000,"speed":0.000,"climb":0.000,"eps":380.14,"epc":1012.00}
{"class":"SKY","device":"/dev/tty96B1","xdop":0.58,"ydop":0.63,"vdop":1.10,"tdop":0.69,"hdop":0.90,"gdop":1.57,"pdop":1.40,"satellites":[{"PRN":12,"el":79,"az":133,"ss":46,"used":true},{"PRN":2,"el":71,"az":42,"ss":39,"used":true},{"PRN":25,"el":54,"az":313,"ss":33,"used":true},{"PRN":5,"el":34,"az":143,"ss":42,"used":true},{"PRN":29,"el":28,"az":286,"ss":28,"used":true},{"PRN":6,"el":22,"az":45,"ss":35,"used":true},{"PRN":24,"el":17,"az":203,"ss":35,"used":true},{"PRN":19,"el":12,"az":78,"ss":22,"used":true},{"PRN":31,"el":7,"az":324,"ss":32,"used":true}]}
{"class":"TPV","device":"/dev/tty96B1","mode":3,"time":"2018-09-08T16:38:09.989Z","ept":0.005,"lat":37.329150000,"lon":-121.925821667,"alt":45.400,"epx":8.628,"epy":9.504,"epv":25.300,"track":208.9000,"speed":0.000,"climb":0.000,"eps":380.14,"epc":1012.00}
{"class":"TPV","device":"/dev/tty96B1","mode":3,"time":"2018-09-08T16:38:10.039Z","ept":0.005,"lat":37.329150000,"lon":-121.925821667,"alt":45.400,"epx":8.628,"epy":9.504,"epv":25.300,"track":208.9000,"speed":0.000,"climb":0.000,"eps":380.14,"epc":1012.00}
{"class":"TPV","device":"/dev/tty96B1","mode":3,"time":"2018-09-08T16:38:10.089Z","ept":0.005,"lat":37.329150000,"lon":-121.925821667,"alt":45.400,"epx":8.628,"epy":9.504,"epv":25.300,"track":208.9000,"speed":0.000,"climb":0.000,"eps":380.14,"epc":1012.00}
{"class":"TPV","device":"/dev/tty96B1","mode":3,"time":"2018-09-08T16:38:10.139Z","ept":0.005,"lat":37.329150000,"lon":-121.925821667,"alt":45.400,"epx":8.628,"epy":9.504,"epv":25.300,"track":208.9000,"speed":0.000,"climb":0.000,"eps":380.14,"epc":1012.00}
{"class":"TPV","device":"/dev/tty96B1","mode":3,"time":"2018-09-08T16:38:10.189Z","ept":0.005,"lat":37.329150000,"lon":-121.925821667,"alt":45.400,"epx":8.628,"epy":9.504,"epv":25.300,"track":208.9000,"speed":0.000,"climb":0.000,"eps":380.14,"epc":1012.00}
{"class":"TPV","device":"/dev/tty96B1","mode":3,"time":"2018-09-08T16:38:10.239Z","ept":0.005,"lat":37.329150000,"lon":-121.925821667,"alt":45.400,"epx":8.628,"epy":9.504,"epv":25.300,"track":208.9000,"speed":0.000,"climb":0.000,"eps":380.14,"epc":1012.00}
{"class":"TPV","device":"/dev/tty96B1","mode":3,"time":"2018-09-08T16:38:10.289Z","ept":0.005,"lat":37.329150000,"lon":-121.925821667,"alt":45.400,"epx":8.628,"epy":9.504,"epv":25.300,"track":208.9000,"speed":0.000,"climb":0.000,"eps":380.14,"epc":1012.00}
{"class":"TPV","device":"/dev/tty96B1","mode":3,"time":"2018-09-08T16:38:10.339Z","ept":0.005,"lat":37.329150000,"lon":-121.925821667,"alt":45.400,"epx":8.628,"epy":9.504,"epv":25.300,"track":208.9000,"speed":0.000,"climb":0.000,"eps":380.14,"epc":1012.00}
{"class":"TPV","device":"/dev/tty96B1","mode":3,"time":"2018-09-08T16:38:10.389Z","ept":0.005,"lat":37.329150000,"lon":-121.925821667,"alt":45.400,"epx":8.628,"epy":9.504,"epv":25.300,"track":208.9000,"speed":0.000,"climb":0.000,"eps":380.14,"epc":1012.00}
{"class":"TPV","device":"/dev/tty96B1","mode":3,"time":"2018-09-08T16:38:10.439Z","ept":0.005,"lat":37.329150000,"lon":-121.925821667,"alt":45.400,"epx":8.628,"epy":9.504,"epv":25.300,"track":208.9000,"speed":0.000,"climb":0.000,"eps":380.14,"epc":1012.00}
{"class":"TPV","device":"/dev/tty96B1","mode":3,"time":"2018-09-08T16:38:10.489Z","ept":0.005,"lat":37.329150000,"lon":-121.925821667,"alt":45.400,"epx":8.628,"epy":9.504,"epv":25.300,"track":208.9000,"speed":0.000,"climb":0.000,"eps":380.14,"epc":1012.00}
{"class":"TPV","device":"/dev/tty96B1","mode":3,"time":"2018-09-08T16:38:10.539Z","ept":0.005,"lat":37.329150000,"lon":-121.925821667,"alt":45.400,"epx":8.628,"epy":9.504,"epv":25.300,"track":208.9000,"speed":0.000,"climb":0.000,"eps":380.14,"epc":1012.00}
{"class":"TPV","device":"/dev/tty96B1","mode":3,"time":"2018-09-08T16:38:10.589Z","ept":0.005,"lat":37.329150000,"lon":-121.925821667,"alt":45.400,"epx":8.628,"epy":9.504,"epv":25.300,"track":208.9000,"speed":0.000,"climb":0.000,"eps":380.14,"epc":1012.00}
{"class":"TPV","device":"/dev/tty96B1","mode":3,"time":"2018-09-08T16:38:10.639Z","ept":0.005,"lat":37.329150000,"lon":-121.925821667,"alt":45.400,"epx":8.628,"epy":9.504,"epv":25.300,"track":208.9000,"speed":0.000,"climb":0.000,"eps":380.14,"epc":1012.00}
{"class":"TPV","device":"/dev/tty96B1","mode":3,"time":"2018-09-08T16:38:10.689Z","ept":0.005,"lat":37.329150000,"lon":-121.925821667,"alt":45.400,"epx":8.628,"epy":9.504,"epv":25.300,"track":208.9000,"speed":0.000,"climb":0.000,"eps":380.14,"epc":1012.00}
{"class":"TPV","device":"/dev/tty96B1","mode":3,"time":"2018-09-08T16:38:10.739Z","ept":0.005,"lat":37.329150000,"lon":-121.925821667,"alt":45.400,"epx":8.628,"epy":9.504,"epv":25.300,"track":208.9000,"speed":0.000,"climb":0.000,"eps":380.14,"epc":1012.00}
{"class":"TPV","device":"/dev/tty96B1","mode":3,"time":"2018-09-08T16:38:10.789Z","ept":0.005,"lat":37.329150000,"lon":-121.925821667,"alt":45.400,"epx":8.628,"epy":9.504,"epv":25.300,"track":208.9000,"speed":0.000,"climb":0.000,"eps":380.14,"epc":1012.00}
{"class":"TPV","device":"/dev/tty96B1","mode":3,"time":"2018-09-08T16:38:10.839Z","ept":0.005,"lat":37.329150000,"lon":-121.925821667,"alt":45.400,"epx":8.628,"epy":9.504,"epv":25.300,"track":208.9000,"speed":0.000,"climb":0.000,"eps":380.14,"epc":1012.00}
{"class":"TPV","device":"/dev/tty96B1","mode":3,"time":"2018-09-08T16:38:10.889Z","ept":0.005,"lat":37.329150000,"lon":-121.925821667,"alt":45.400,"epx":8.628,"epy":9.504,"epv":25.300,"track":208.9000,"speed":0.000,"climb":0.000,"eps":380.14,"epc":1012.00}
{"class":"TPV","device":"/dev/tty96B1","mode":3,"time":"2018-09-08T16:38:10.939Z","ept":0.005,"lat":37.329150000,"lon":-121.925821667,"alt":45.400,"epx":8.628,"epy":9.504,"epv":25.300,"track":208.9000,"speed":0.000,"climb":0.000,"eps":380.14,"epc":1012.00}
{"class":"SKY","device":"/dev/tty96B1","xdop":0.58,"ydop":0.63,"vdop":1.10,"tdop":0.69,"hdop":0.90,"gdop":1.57,"pdop":1.40,"satellites":[{"PRN":12,"el":79,"az":133,"ss":46,"used":true},{"PRN":2,"el":71,"az":42,"ss":40,"used":true},{"PRN":25,"el":54,"az":313,"ss":33,"used":true},{"PRN":5,"el":34,"az":143,"ss":43,"used":true},{"PRN":29,"el":28,"az":286,"ss":28,"used":true},{"PRN":6,"el":22,"az":45,"ss":35,"used":true},{"PRN":24,"el":17,"az":203,"ss":35,"used":true},{"PRN":19,"el":12,"az":78,"ss":25,"used":true},{"PRN":31,"el":7,"az":324,"ss":32,"used":true}]}
{"class":"TPV","device":"/dev/tty96B1","mode":3,"time":"2018-09-08T16:38:10.989Z","ept":0.005,"lat":37.329150000,"lon":-121.925821667,"alt":45.400,"epx":8.628,"epy":9.504,"epv":25.300,"track":208.9000,"speed":0.000,"climb":0.000,"eps":380.14,"epc":1012.00}
{"class":"TPV","device":"/dev/tty96B1","mode":3,"time":"2018-09-08T16:38:11.039Z","ept":0.005,"lat":37.329150000,"lon":-121.925821667,"alt":45.400,"epx":8.628,"epy":9.504,"epv":25.300,"track":208.9000,"speed":0.000,"climb":0.000,"eps":380.14,"epc":1012.00}
{"class":"TPV","device":"/dev/tty96B1","mode":3,"time":"2018-09-08T16:38:11.089Z","ept":0.005,"lat":37.329150000,"lon":-121.925821667,"alt":45.400,"epx":8.628,"epy":9.504,"epv":25.300,"track":208.9000,"speed":0.000,"climb":0.000,"eps":380.14,"epc":1012.00}
{"class":"TPV","device":"/dev/tty96B1","mode":3,"time":"2018-09-08T16:38:11.139Z","ept":0.005,"lat":37.329150000,"lon":-121.925821667,"alt":45.400,"epx":8.628,"epy":9.504,"epv":25.300,"track":208.9000,"speed":0.000,"climb":0.000,"eps":380.14,"epc":1012.00}
{"class":"TPV","device":"/dev/tty96B1","mode":3,"time":"2018-09-08T16:38:11.189Z","ept":0.005,"lat":37.329150000,"lon":-121.925821667,"alt":45.400,"epx":8.628,"epy":9.504,"epv":25.300,"track":208.9000,"speed":0.000,"climb":0.000,"eps":380.14,"epc":1012.00}
{"class":"TPV","device":"/dev/tty96B1","mode":3,"time":"2018-09-08T16:38:11.239Z","ept":0.005,"lat":37.329150000,"lon":-121.925821667,"alt":45.400,"epx":8.628,"epy":9.504,"epv":25.300,"track":208.9000,"speed":0.000,"climb":0.000,"eps":380.14,"epc":1012.00}
{"class":"TPV","device":"/dev/tty96B1","mode":3,"time":"2018-09-08T16:38:11.289Z","ept":0.005,"lat":37.329150000,"lon":-121.925821667,"alt":45.400,"epx":8.628,"epy":9.504,"epv":25.300,"track":208.9000,"speed":0.000,"climb":0.000,"eps":380.14,"epc":1012.00}
{"class":"TPV","device":"/dev/tty96B1","mode":3,"time":"2018-09-08T16:38:11.339Z","ept":0.005,"lat":37.329150000,"lon":-121.925821667,"alt":45.400,"epx":8.628,"epy":9.504,"epv":25.300,"track":208.9000,"speed":0.000,"climb":0.000,"eps":380.14,"epc":1012.00}
{"class":"TPV","device":"/dev/tty96B1","mode":3,"time":"2018-09-08T16:38:11.389Z","ept":0.005,"lat":37.329150000,"lon":-121.925821667,"alt":45.400,"epx":8.628,"epy":9.504,"epv":25.300,"track":208.9000,"speed":0.000,"climb":0.000,"eps":380.14,"epc":1012.00}
{"class":"TPV","device":"/dev/tty96B1","mode":3,"time":"2018-09-08T16:38:11.439Z","ept":0.005,"lat":37.329150000,"lon":-121.925821667,"alt":45.400,"epx":8.628,"epy":9.504,"epv":25.300,"track":208.9000,"speed":0.000,"climb":0.000,"eps":380.14,"epc":1012.00}
{"class":"TPV","device":"/dev/tty96B1","mode":3,"time":"2018-09-08T16:38:11.489Z","ept":0.005,"lat":37.329150000,"lon":-121.925821667,"alt":45.400,"epx":8.628,"epy":9.504,"epv":25.300,"track":208.9000,"speed":0.000,"climb":0.000,"eps":380.14,"epc":1012.00}
{"class":"TPV","device":"/dev/tty96B1","mode":3,"time":"2018-09-08T16:38:11.539Z","ept":0.005,"lat":37.329150000,"lon":-121.925821667,"alt":45.400,"epx":8.628,"epy":9.504,"epv":25.300,"track":208.9000,"speed":0.000,"climb":0.000,"eps":380.14,"epc":1012.00}
{"class":"TPV","device":"/dev/tty96B1","mode":3,"time":"2018-09-08T16:38:11.589Z","ept":0.005,"lat":37.329150000,"lon":-121.925821667,"alt":45.400,"epx":8.628,"epy":9.504,"epv":25.300,"track":208.9000,"speed":0.000,"climb":0.000,"eps":380.14,"epc":1012.00}
{"class":"TPV","device":"/dev/tty96B1","mode":3,"time":"2018-09-08T16:38:11.639Z","ept":0.005,"lat":37.329150000,"lon":-121.925821667,"alt":45.400,"epx":8.628,"epy":9.504,"epv":25.300,"track":208.9000,"speed":0.000,"climb":0.000,"eps":380.14,"epc":1012.00}
{"class":"TPV","device":"/dev/tty96B1","mode":3,"time":"2018-09-08T16:38:11.689Z","ept":0.005,"lat":37.329150000,"lon":-121.925821667,"alt":45.400,"epx":8.628,"epy":9.504,"epv":25.300,"track":208.9000,"speed":0.000,"climb":0.000,"eps":380.14,"epc":1012.00}
{"class":"TPV","device":"/dev/tty96B1","mode":3,"time":"2018-09-08T16:38:11.739Z","ept":0.005,"lat":37.329150000,"lon":-121.925821667,"alt":45.400,"epx":8.628,"epy":9.504,"epv":25.300,"track":208.9000,"speed":0.000,"climb":0.000,"eps":380.14,"epc":1012.00}
{"class":"TPV","device":"/dev/tty96B1","mode":3,"time":"2018-09-08T16:38:11.789Z","ept":0.005,"lat":37.329150000,"lon":-121.925821667,"alt":45.400,"epx":8.628,"epy":9.504,"epv":25.300,"track":208.9000,"speed":0.000,"climb":0.000,"eps":380.14,"epc":1012.00}
{"class":"TPV","device":"/dev/tty96B1","mode":3,"time":"2018-09-08T16:38:11.839Z","ept":0.005,"lat":37.329150000,"lon":-121.925821667,"alt":45.400,"epx":8.628,"epy":9.504,"epv":25.300,"track":208.9000,"speed":0.000,"climb":0.000,"eps":380.14,"epc":1012.00}
{"class":"TPV","device":"/dev/tty96B1","mode":3,"time":"2018-09-08T16:38:11.889Z","ept":0.005,"lat":37.329150000,"lon":-121.925821667,"alt":45.400,"epx":8.628,"epy":9.504,"epv":25.300,"track":208.9000,"speed":0.000,"climb":0.000,"eps":380.14,"epc":1012.00}
{"class":"TPV","device":"/dev/tty96B1","mode":3,"time":"2018-09-08T16:38:11.939Z","ept":0.005,"lat":37.329150000,"lon":-121.925821667,"alt":45.400,"epx":8.628,"epy":9.504,"epv":25.300,"track":208.9000,"speed":0.000,"climb":0.000,"eps":380.14,"epc":1012.00}
{"class":"SKY","device":"/dev/tty96B1","xdop":0.58,"ydop":0.63,"vdop":1.10,"tdop":0.69,"hdop":0.90,"gdop":1.57,"pdop":1.40,"satellites":[{"PRN":12,"el":79,"az":133,"ss":47,"used":true},{"PRN":2,"el":71,"az":42,"ss":40,"used":true},{"PRN":25,"el":54,"az":313,"ss":34,"used":true},{"PRN":5,"el":34,"az":143,"ss":43,"used":true},{"PRN":29,"el":28,"az":286,"ss":32,"used":true},{"PRN":6,"el":22,"az":45,"ss":35,"used":true},{"PRN":24,"el":17,"az":203,"ss":36,"used":true},{"PRN":19,"el":12,"az":78,"ss":25,"used":true},{"PRN":31,"el":7,"az":324,"ss":31,"used":true}]}
{"class":"TPV","device":"/dev/tty96B1","mode":3,"time":"2018-09-08T16:38:11.989Z","ept":0.005,"lat":37.329150000,"lon":-121.925821667,"alt":45.400,"epx":8.628,"epy":9.504,"epv":25.300,"track":208.9000,"speed":0.000,"climb":0.000,"eps":380.14,"epc":1012.00}
{"class":"TPV","device":"/dev/tty96B1","mode":3,"time":"2018-09-08T16:38:12.039Z","ept":0.005,"lat":37.329150000,"lon":-121.925821667,"alt":45.400,"epx":8.628,"epy":9.504,"epv":25.300,"track":208.9000,"speed":0.000,"climb":0.000,"eps":380.14,"epc":1012.00}
{"class":"TPV","device":"/dev/tty96B1","mode":3,"time":"2018-09-08T16:38:12.089Z","ept":0.005,"lat":37.329150000,"lon":-121.925821667,"alt":45.400,"epx":8.628,"epy":9.504,"epv":25.300,"track":208.9000,"speed":0.000,"climb":0.000,"eps":380.14,"epc":1012.00}
{"class":"TPV","device":"/dev/tty96B1","mode":3,"time":"2018-09-08T16:38:12.139Z","ept":0.005,"lat":37.329150000,"lon":-121.925821667,"alt":45.400,"epx":8.628,"epy":9.504,"epv":25.300,"track":208.9000,"speed":0.000,"climb":0.000,"eps":380.14,"epc":1012.00}
{"class":"TPV","device":"/dev/tty96B1","mode":3,"time":"2018-09-08T16:38:12.189Z","ept":0.005,"lat":37.329150000,"lon":-121.925821667,"alt":45.400,"epx":8.628,"epy":9.504,"epv":25.300,"track":208.9000,"speed":0.000,"climb":0.000,"eps":380.14,"epc":1012.00}
{"class":"TPV","device":"/dev/tty96B1","mode":3,"time":"2018-09-08T16:38:12.239Z","ept":0.005,"lat":37.329150000,"lon":-121.925821667,"alt":45.400,"epx":8.628,"epy":9.504,"epv":25.300,"track":208.9000,"speed":0.000,"climb":0.000,"eps":380.14,"epc":1012.00}
{"class":"TPV","device":"/dev/tty96B1","mode":3,"time":"2018-09-08T16:38:12.289Z","ept":0.005,"lat":37.329150000,"lon":-121.925821667,"alt":45.400,"epx":8.628,"epy":9.504,"epv":25.300,"track":208.9000,"speed":0.000,"climb":0.000,"eps":380.14,"epc":1012.00}
{"class":"TPV","device":"/dev/tty96B1","mode":3,"time":"2018-09-08T16:38:12.339Z","ept":0.005,"lat":37.329150000,"lon":-121.925821667,"alt":45.400,"epx":8.628,"epy":9.504,"epv":25.300,"track":208.9000,"speed":0.000,"climb":0.000,"eps":380.14,"epc":1012.00}
{"class":"TPV","device":"/dev/tty96B1","mode":3,"time":"2018-09-08T16:38:12.389Z","ept":0.005,"lat":37.329150000,"lon":-121.925821667,"alt":45.400,"epx":8.628,"epy":9.504,"epv":25.300,"track":208.9000,"speed":0.000,"climb":0.000,"eps":380.14,"epc":1012.00}
{"class":"TPV","device":"/dev/tty96B1","mode":3,"time":"2018-09-08T16:38:12.439Z","ept":0.005,"lat":37.329150000,"lon":-121.925821667,"alt":45.400,"epx":8.628,"epy":9.504,"epv":25.300,"track":208.9000,"speed":0.000,"climb":0.000,"eps":380.14,"epc":1012.00}
{"class":"TPV","device":"/dev/tty96B1","mode":3,"time":"2018-09-08T16:38:12.489Z","ept":0.005,"lat":37.329150000,"lon":-121.925821667,"alt":45.400,"epx":8.628,"epy":9.504,"epv":25.300,"track":208.9000,"speed":0.000,"climb":0.000,"eps":380.14,"epc":1012.00}
{"class":"TPV","device":"/dev/tty96B1","mode":3,"time":"2018-09-08T16:38:12.539Z","ept":0.005,"lat":37.329150000,"lon":-121.925821667,"alt":45.400,"epx":8.628,"epy":9.504,"epv":25.300,"track":208.9000,"speed":0.000,"climb":0.000,"eps":380.14,"epc":1012.00}
{"class":"TPV","device":"/dev/tty96B1","mode":3,"time":"2018-09-08T16:38:12.589Z","ept":0.005,"lat":37.329150000,"lon":-121.925821667,"alt":45.400,"epx":8.628,"epy":9.504,"epv":25.300,"track":208.9000,"speed":0.000,"climb":0.000,"eps":380.14,"epc":1012.00}
{"class":"TPV","device":"/dev/tty96B1","mode":3,"time":"2018-09-08T16:38:12.639Z","ept":0.005,"lat":37.329150000,"lon":-121.925821667,"alt":45.400,"epx":8.628,"epy":9.504,"epv":25.300,"track":208.9000,"speed":0.000,"climb":0.000,"eps":380.14,"epc":1012.00}
{"class":"TPV","device":"/dev/tty96B1","mode":3,"time":"2018-09-08T16:38:12.689Z","ept":0.005,"lat":37.329150000,"lon":-121.925821667,"alt":45.400,"epx":8.628,"epy":9.504,"epv":25.300,"track":208.9000,"speed":0.000,"climb":0.000,"eps":380.14,"epc":1012.00}
{"class":"TPV","device":"/dev/tty96B1","mode":3,"time":"2018-09-08T16:38:12.739Z","ept":0.005,"lat":37.329150000,"lon":-121.925821667,"alt":45.400,"epx":8.628,"epy":9.504,"epv":25.300,"track":208.9000,"speed":0.000,"climb":0.000,"eps":380.14,"epc":1012.00}
{"class":"TPV","device":"/dev/tty96B1","mode":3,"time":"2018-09-08T16:38:12.789Z","ept":0.005,"lat":37.329150000,"lon":-121.925821667,"alt":45.400,"epx":8.628,"epy":9.504,"epv":25.300,"track":208.9000,"speed":0.000,"climb":0.000,"eps":380.14,"epc":1012.00}
{"class":"TPV","device":"/dev/tty96B1","mode":3,"time":"2018-09-08T16:38:12.839Z","ept":0.005,"lat":37.329150000,"lon":-121.925821667,"alt":45.400,"epx":8.628,"epy":9.504,"epv":25.300,"track":208.9000,"speed":0.000,"climb":0.000,"eps":380.14,"epc":1012.00}
{"class":"TPV","device":"/dev/tty96B1","mode":3,"time":"2018-09-08T16:38:12.889Z","ept":0.005,"lat":37.329150000,"lon":-121.925821667,"alt":45.400,"epx":8.628,"epy":9.504,"epv":25.300,"track":208.9000,"speed":0.000,"climb":0.000,"eps":380.14,"epc":1012.00}
{"class":"TPV","device":"/dev/tty96B1","mode":3,"time":"2018-09-08T16:38:12.939Z","ept":0.005,"lat":37.329150000,"lon":-121.925821667,"alt":45.400,"epx":8.628,"epy":9.504,"epv":25.300,"track":208.9000,"speed":0.000,"climb":0.000,"eps":380.14,"epc":1012.00}
{"class":"SKY","device":"/dev/tty96B1","xdop":0.58,"ydop":0.63,"vdop":1.10,"tdop":0.69,"hdop":0.90,"gdop":1.57,"pdop":1.40,"satellites":[{"PRN":12,"el":79,"az":133,"ss":47,"used":true},{"PRN":2,"el":71,"az":42,"ss":38,"used":true},{"PRN":25,"el":54,"az":313,"ss":34,"used":true},{"PRN":5,"el":34,"az":143,"ss":43,"used":true},{"PRN":29,"el":28,"az":286,"ss":32,"used":true},{"PRN":6,"el":22,"az":45,"ss":35,"used":true},{"PRN":24,"el":17,"az":203,"ss":36,"used":true},{"PRN":19,"el":12,"az":78,"ss":24,"used":true},{"PRN":31,"el":7,"az":324,"ss":30,"used":true}]}
{"class":"TPV","device":"/dev/tty96B1","mode":3,"time":"2018-09-08T16:38:12.989Z","ept":0.005,"lat":37.329150000,"lon":-121.925821667,"alt":45.400,"epx":8.628,"epy":9.504,"epv":25.300,"track":208.9000,"speed":0.000,"climb":0.000,"eps":380.14,"epc":1012.00}
{"class":"TPV","device":"/dev/tty96B1","mode":3,"time":"2018-09-08T16:38:13.039Z","ept":0.005,"lat":37.329150000,"lon":-121.925821667,"alt":45.400,"epx":8.628,"epy":9.504,"epv":25.300,"track":208.9000,"speed":0.000,"climb":0.000,"eps":380.14,"epc":1012.00}
{"class":"TPV","device":"/dev/tty96B1","mode":3,"time":"2018-09-08T16:38:13.089Z","ept":0.005,"lat":37.329150000,"lon":-121.925821667,"alt":45.400,"epx":8.628,"epy":9.504,"epv":25.300,"track":208.9000,"speed":0.000,"climb":0.000,"eps":380.14,"epc":1012.00}
{"class":"TPV","device":"/dev/tty96B1","mode":3,"time":"2018-09-08T16:38:13.139Z","ept":0.005,"lat":37.329150000,"lon":-121.925821667,"alt":45.400,"epx":8.628,"epy":9.504,"epv":25.300,"track":208.9000,"speed":0.000,"climb":0.000,"eps":380.14,"epc":1012.00}
{"class":"TPV","device":"/dev/tty96B1","mode":3,"time":"2018-09-08T16:38:13.189Z","ept":0.005,"lat":37.329150000,"lon":-121.925821667,"alt":45.400,"epx":8.628,"epy":9.504,"epv":25.300,"track":208.9000,"speed":0.000,"climb":0.000,"eps":380.14,"epc":1012.00}
{"class":"TPV","device":"/dev/tty96B1","mode":3,"time":"2018-09-08T16:38:13.239Z","ept":0.005,"lat":37.329150000,"lon":-121.925821667,"alt":45.400,"epx":8.628,"epy":9.504,"epv":25.300,"track":208.9000,"speed":0.000,"climb":0.000,"eps":380.14,"epc":1012.00}
{"class":"TPV","device":"/dev/tty96B1","mode":3,"time":"2018-09-08T16:38:13.289Z","ept":0.005,"lat":37.329150000,"lon":-121.925821667,"alt":45.400,"epx":8.628,"epy":9.504,"epv":25.300,"track":208.9000,"speed":0.000,"climb":0.000,"eps":380.14,"epc":1012.00}
{"class":"TPV","device":"/dev/tty96B1","mode":3,"time":"2018-09-08T16:38:13.339Z","ept":0.005,"lat":37.329150000,"lon":-121.925821667,"alt":45.400,"epx":8.628,"epy":9.504,"epv":25.300,"track":208.9000,"speed":0.000,"climb":0.000,"eps":380.14,"epc":1012.00}
{"class":"TPV","device":"/dev/tty96B1","mode":3,"time":"2018-09-08T16:38:13.389Z","ept":0.005,"lat":37.329150000,"lon":-121.925821667,"alt":45.400,"epx":8.628,"epy":9.504,"epv":25.300,"track":208.9000,"speed":0.000,"climb":0.000,"eps":380.14,"epc":1012.00}
{"class":"TPV","device":"/dev/tty96B1","mode":3,"time":"2018-09-08T16:38:13.439Z","ept":0.005,"lat":37.329150000,"lon":-121.925823333,"alt":45.300,"epx":8.628,"epy":9.504,"epv":25.300,"track":208.9000,"speed":0.154,"climb":-2.000,"eps":380.14,"epc":1012.00}
{"class":"TPV","device":"/dev/tty96B1","mode":3,"time":"2018-09-08T16:38:13.489Z","ept":0.005,"lat":37.329150000,"lon":-121.925825000,"alt":45.300,"epx":8.628,"epy":9.504,"epv":25.300,"track":208.9000,"speed":0.309,"climb":0.000,"eps":380.14,"epc":1012.00}
{"class":"TPV","device":"/dev/tty96B1","mode":3,"time":"2018-09-08T16:38:13.539Z","ept":0.005,"lat":37.329150000,"lon":-121.925825000,"alt":45.300,"epx":8.628,"epy":9.504,"epv":25.300,"track":208.9000,"speed":0.309,"climb":0.000,"eps":380.14,"epc":1012.00}
{"class":"TPV","device":"/dev/tty96B1","mode":3,"time":"2018-09-08T16:38:13.589Z","ept":0.005,"lat":37.329150000,"lon":-121.925825000,"alt":45.300,"epx":8.628,"epy":9.504,"epv":25.300,"track":208.9000,"speed":0.360,"climb":0.000,"eps":380.14,"epc":1012.00}
{"class":"TPV","device":"/dev/tty96B1","mode":3,"time":"2018-09-08T16:38:13.639Z","ept":0.005,"lat":37.329150000,"lon":-121.925825000,"alt":45.300,"epx":8.628,"epy":9.504,"epv":25.300,"track":208.9000,"speed":0.412,"climb":0.000,"eps":380.14,"epc":1012.00}
{"class":"TPV","device":"/dev/tty96B1","mode":3,"time":"2018-09-08T16:38:13.689Z","ept":0.005,"lat":37.329150000,"lon":-121.925825000,"alt":45.300,"epx":8.628,"epy":9.504,"epv":25.300,"track":208.9000,"speed":0.514,"climb":0.000,"eps":380.14,"epc":1012.00}
{"class":"TPV","device":"/dev/tty96B1","mode":3,"time":"2018-09-08T16:38:13.739Z","ept":0.005,"lat":37.329151667,"lon":-121.925825000,"alt":45.200,"epx":8.628,"epy":9.504,"epv":25.300,"track":208.9000,"speed":0.514,"climb":-2.000,"eps":380.14,"epc":1012.00}
{"class":"TPV","device":"/dev/tty96B1","mode":3,"time":"2018-09-08T16:38:13.789Z","ept":0.005,"lat":37.329151667,"lon":-121.925825000,"alt":45.200,"epx":8.628,"epy":9.504,"epv":25.300,"track":208.9000,"speed":0.514,"climb":0.000,"eps":380.14,"epc":1012.00}
{"class":"TPV","device":"/dev/tty96B1","mode":3,"time":"2018-09-08T16:38:13.839Z","ept":0.005,"lat":37.329151667,"lon":-121.925825000,"alt":45.200,"epx":8.628,"epy":9.504,"epv":25.300,"track":208.9000,"speed":0.514,"climb":0.000,"eps":380.14,"epc":1012.00}
{"class":"TPV","device":"/dev/tty96B1","mode":3,"time":"2018-09-08T16:38:13.889Z","ept":0.005,"lat":37.329151667,"lon":-121.925825000,"alt":45.200,"epx":8.628,"epy":9.504,"epv":25.300,"track":208.9000,"speed":0.463,"climb":0.000,"eps":380.14,"epc":1012.00}
{"class":"TPV","device":"/dev/tty96B1","mode":3,"time":"2018-09-08T16:38:13.939Z","ept":0.005,"lat":37.329151667,"lon":-121.925825000,"alt":45.200,"epx":8.628,"epy":9.504,"epv":25.300,"track":208.9000,"speed":0.360,"climb":0.000,"eps":380.14,"epc":1012.00}
{"class":"SKY","device":"/dev/tty96B1","xdop":0.58,"ydop":0.63,"vdop":1.10,"tdop":0.69,"hdop":0.90,"gdop":1.57,"pdop":1.40,"satellites":[{"PRN":12,"el":79,"az":133,"ss":48,"used":true},{"PRN":2,"el":71,"az":42,"ss":40,"used":true},{"PRN":25,"el":54,"az":313,"ss":40,"used":true},{"PRN":5,"el":34,"az":143,"ss":45,"used":true},{"PRN":29,"el":28,"az":286,"ss":38,"used":true},{"PRN":6,"el":22,"az":45,"ss":34,"used":true},{"PRN":24,"el":17,"az":203,"ss":30,"used":true},{"PRN":19,"el":12,"az":78,"ss":24,"used":true},{"PRN":31,"el":7,"az":324,"ss":32,"used":true}]}
{"class":"TPV","device":"/dev/tty96B1","mode":3,"time":"2018-09-08T16:38:13.989Z","ept":0.005,"lat":37.329151667,"lon":-121.925826667,"alt":45.200,"epx":8.628,"epy":9.504,"epv":25.300,"track":208.9000,"speed":0.309,"climb":0.000,"eps":380.14,"epc":1012.00}
{"class":"TPV","device":"/dev/tty96B1","mode":3,"time":"2018-09-08T16:38:14.039Z","ept":0.005,"lat":37.329151667,"lon":-121.925826667,"alt":45.200,"epx":8.628,"epy":9.504,"epv":25.300,"track":208.9000,"speed":0.309,"climb":0.000,"eps":380.14,"epc":1012.00}
{"class":"TPV","device":"/dev/tty96B1","mode":3,"time":"2018-09-08T16:38:14.089Z","ept":0.005,"lat":37.329151667,"lon":-121.925826667,"alt":45.200,"epx":8.628,"epy":9.504,"epv":25.300,"track":208.9000,"speed":0.309,"climb":0.000,"eps":380.14,"epc":1012.00}
{"class":"TPV","device":"/dev/tty96B1","mode":3,"time":"2018-09-08T16:38:14.139Z","ept":0.005,"lat":37.329151667,"lon":-121.925826667,"alt":45.200,"epx":8.628,"epy":9.504,"epv":25.300,"track":208.9000,"speed":0.360,"climb":0.000,"eps":380.14,"epc":1012.00}
{"class":"TPV","device":"/dev/tty96B1","mode":3,"time":"2018-09-08T16:38:14.189Z","ept":0.005,"lat":37.329151667,"lon":-121.925826667,"alt":45.100,"epx":8.628,"epy":9.504,"epv":25.300,"track":208.9000,"speed":0.360,"climb":-2.000,"eps":380.14,"epc":1012.00}
{"class":"TPV","device":"/dev/tty96B1","mode":3,"time":"2018-09-08T16:38:14.239Z","ept":0.005,"lat":37.329151667,"lon":-121.925826667,"alt":45.100,"epx":8.628,"epy":9.504,"epv":25.300,"track":208.9000,"speed":0.360,"climb":0.000,"eps":380.14,"epc":1012.00}
{"class":"TPV","device":"/dev/tty96B1","mode":3,"time":"2018-09-08T16:38:14.289Z","ept":0.005,"lat":37.329151667,"lon":-121.925826667,"alt":45.100,"epx":8.628,"epy":9.504,"epv":25.300,"track":208.9000,"speed":0.309,"climb":0.000,"eps":380.14,"epc":1012.00}
{"class":"TPV","device":"/dev/tty96B1","mode":3,"time":"2018-09-08T16:38:14.339Z","ept":0.005,"lat":37.329151667,"lon":-121.925826667,"alt":45.100,"epx":8.628,"epy":9.504,"epv":25.300,"track":208.9000,"speed":0.154,"climb":0.000,"eps":380.14,"epc":1012.00}
{"class":"TPV","device":"/dev/tty96B1","mode":3,"time":"2018-09-08T16:38:14.389Z","ept":0.005,"lat":37.329151667,"lon":-121.925826667,"alt":45.100,"epx":8.628,"epy":9.504,"epv":25.300,"track":208.9000,"speed":0.000,"climb":0.000,"eps":380.14,"epc":1012.00}
{"class":"TPV","device":"/dev/tty96B1","mode":3,"time":"2018-09-08T16:38:14.439Z","ept":0.005,"lat":37.329151667,"lon":-121.925826667,"alt":45.100,"epx":8.628,"epy":9.504,"epv":25.300,"track":208.9000,"speed":0.000,"climb":0.000,"eps":380.14,"epc":1012.00}
{"class":"TPV","device":"/dev/tty96B1","mode":3,"time":"2018-09-08T16:38:14.489Z","ept":0.005,"lat":37.329151667,"lon":-121.925826667,"alt":45.100,"epx":8.628,"epy":9.504,"epv":25.300,"track":208.9000,"speed":0.000,"climb":0.000,"eps":380.14,"epc":1012.00}
{"class":"TPV","device":"/dev/tty96B1","mode":3,"time":"2018-09-08T16:38:14.539Z","ept":0.005,"lat":37.329151667,"lon":-121.925826667,"alt":45.100,"epx":8.628,"epy":9.504,"epv":25.300,"track":208.9000,"speed":0.154,"climb":0.000,"eps":380.14,"epc":1012.00}
{"class":"TPV","device":"/dev/tty96B1","mode":3,"time":"2018-09-08T16:38:14.589Z","ept":0.005,"lat":37.329151667,"lon":-121.925828333,"alt":45.100,"epx":8.628,"epy":9.504,"epv":25.300,"track":208.9000,"speed":0.309,"climb":0.000,"eps":380.14,"epc":1012.00}
{"class":"TPV","device":"/dev/tty96B1","mode":3,"time":"2018-09-08T16:38:14.639Z","ept":0.005,"lat":37.329151667,"lon":-121.925828333,"alt":45.000,"epx":8.628,"epy":9.504,"epv":25.300,"track":208.9000,"speed":0.360,"climb":-2.000,"eps":380.14,"epc":1012.00}
{"class":"TPV","device":"/dev/tty96B1","mode":3,"time":"2018-09-08T16:38:14.689Z","ept":0.005,"lat":37.329151667,"lon":-121.925828333,"alt":45.000,"epx":8.628,"epy":9.504,"epv":25.300,"track":208.9000,"speed":0.412,"climb":0.000,"eps":380.14,"epc":1012.00}
{"class":"TPV","device":"/dev/tty96B1","mode":3,"time":"2018-09-08T16:38:14.739Z","ept":0.005,"lat":37.329151667,"lon":-121.925828333,"alt":45.000,"epx":8.628,"epy":9.504,"epv":25.300,"track":208.9000,"speed":0.412,"climb":0.000,"eps":380.14,"epc":1012.00}
{"class":"TPV","device":"/dev/tty96B1","mode":3,"time":"2018-09-08T16:38:14.789Z","ept":0.005,"lat":37.329151667,"lon":-121.925828333,"alt":45.000,"epx":8.628,"epy":9.504,"epv":25.300,"track":208.9000,"speed":0.463,"climb":0.000,"eps":380.14,"epc":1012.00}
{"class":"TPV","device":"/dev/tty96B1","mode":3,"time":"2018-09-08T16:38:14.839Z","ept":0.005,"lat":37.329151667,"lon":-121.925828333,"alt":45.000,"epx":8.628,"epy":9.504,"epv":25.300,"track":208.9000,"speed":0.566,"climb":0.000,"eps":380.14,"epc":1012.00}
{"class":"TPV","device":"/dev/tty96B1","mode":3,"time":"2018-09-08T16:38:14.889Z","ept":0.005,"lat":37.329151667,"lon":-121.925828333,"alt":45.000,"epx":8.628,"epy":9.504,"epv":25.300,"track":208.9000,"speed":0.669,"climb":0.000,"eps":380.14,"epc":1012.00}
{"class":"TPV","device":"/dev/tty96B1","mode":3,"time":"2018-09-08T16:38:14.939Z","ept":0.005,"lat":37.329151667,"lon":-121.925828333,"alt":45.000,"epx":8.628,"epy":9.504,"epv":25.300,"track":208.9000,"speed":0.617,"climb":0.000,"eps":380.14,"epc":1012.00}
{"class":"SKY","device":"/dev/tty96B1","xdop":0.58,"ydop":0.63,"vdop":1.10,"tdop":0.69,"hdop":0.90,"gdop":1.57,"pdop":1.40,"satellites":[{"PRN":12,"el":79,"az":133,"ss":47,"used":true},{"PRN":2,"el":71,"az":42,"ss":40,"used":true},{"PRN":25,"el":54,"az":313,"ss":30,"used":true},{"PRN":5,"el":34,"az":143,"ss":39,"used":true},{"PRN":29,"el":28,"az":286,"ss":40,"used":true},{"PRN":6,"el":22,"az":45,"ss":38,"used":true},{"PRN":24,"el":17,"az":203,"ss":28,"used":true},{"PRN":19,"el":12,"az":78,"ss":25,"used":true},{"PRN":31,"el":7,"az":324,"ss":29,"used":true}]}
{"class":"TPV","device":"/dev/tty96B1","mode":3,"time":"2018-09-08T16:38:14.989Z","ept":0.005,"lat":37.329151667,"lon":-121.925828333,"alt":45.000,"epx":8.628,"epy":9.504,"epv":25.300,"track":208.9000,"speed":0.514,"climb":0.000,"eps":380.14,"epc":1012.00}
{"class":"TPV","device":"/dev/tty96B1","mode":3,"time":"2018-09-08T16:38:15.039Z","ept":0.005,"lat":37.329151667,"lon":-121.925828333,"alt":45.000,"epx":8.628,"epy":9.504,"epv":25.300,"track":208.9000,"speed":0.514,"climb":0.000,"eps":380.14,"epc":1012.00}
{"class":"TPV","device":"/dev/tty96B1","mode":3,"time":"2018-09-08T16:38:15.089Z","ept":0.005,"lat":37.329151667,"lon":-121.925828333,"alt":44.900,"epx":8.628,"epy":9.504,"epv":25.300,"track":208.9000,"speed":0.566,"climb":-2.000,"eps":380.14,"epc":1012.00}
{"class":"TPV","device":"/dev/tty96B1","mode":3,"time":"2018-09-08T16:38:15.139Z","ept":0.005,"lat":37.329151667,"lon":-121.925828333,"alt":44.900,"epx":8.628,"epy":9.504,"epv":25.300,"track":208.9000,"speed":0.772,"climb":0.000,"eps":380.14,"epc":1012.00}
{"class":"TPV","device":"/dev/tty96B1","mode":3,"time":"2018-09-08T16:38:15.189Z","ept":0.005,"lat":37.329151667,"lon":-121.925828333,"alt":44.900,"epx":8.628,"epy":9.504,"epv":25.300,"track":208.9000,"speed":1.029,"climb":0.000,"eps":380.14,"epc":1012.00}
{"class":"TPV","device":"/dev/tty96B1","mode":3,"time":"2018-09-08T16:38:15.239Z","ept":0.005,"lat":37.329151667,"lon":-121.925828333,"alt":44.900,"epx":8.628,"epy":9.504,"epv":25.300,"track":208.9000,"speed":1.235,"climb":0.000,"eps":380.14,"epc":1012.00}
{"class":"TPV","device":"/dev/tty96B1","mode":3,"time":"2018-09-08T16:38:15.289Z","ept":0.005,"lat":37.329151667,"lon":-121.925830000,"alt":44.900,"epx":8.628,"epy":9.504,"epv":25.300,"track":208.9000,"speed":1.286,"climb":0.000,"eps":380.14,"epc":1012.00}
{"class":"TPV","device":"/dev/tty96B1","mode":3,"time":"2018-09-08T16:38:15.339Z","ept":0.005,"lat":37.329151667,"lon":-121.925830000,"alt":44.900,"epx":8.628,"epy":9.504,"epv":25.300,"track":208.9000,"speed":1.286,"climb":0.000,"eps":380.14,"epc":1012.00}
{"class":"TPV","device":"/dev/tty96B1","mode":3,"time":"2018-09-08T16:38:15.389Z","ept":0.005,"lat":37.329151667,"lon":-121.925830000,"alt":44.900,"epx":8.628,"epy":9.504,"epv":25.300,"track":208.9000,"speed":1.183,"climb":0.000,"eps":380.14,"epc":1012.00}
{"class":"TPV","device":"/dev/tty96B1","mode":3,"time":"2018-09-08T16:38:15.439Z","ept":0.005,"lat":37.329151667,"lon":-121.925830000,"alt":44.800,"epx":8.628,"epy":9.504,"epv":25.300,"track":208.9000,"speed":1.080,"climb":-2.000,"eps":380.14,"epc":1012.00}
{"class":"TPV","device":"/dev/tty96B1","mode":3,"time":"2018-09-08T16:38:15.489Z","ept":0.005,"lat":37.329151667,"lon":-121.925830000,"alt":44.800,"epx":8.628,"epy":9.504,"epv":25.300,"track":208.9000,"speed":0.926,"climb":0.000,"eps":380.14,"epc":1012.00}
{"class":"TPV","device":"/dev/tty96B1","mode":3,"time":"2018-09-08T16:38:15.539Z","ept":0.005,"lat":37.329151667,"lon":-121.925830000,"alt":44.800,"epx":8.628,"epy":9.504,"epv":25.300,"track":208.9000,"speed":0.823,"climb":0.000,"eps":380.14,"epc":1012.00}
{"class":"TPV","device":"/dev/tty96B1","mode":3,"time":"2018-09-08T16:38:15.589Z","ept":0.005,"lat":37.329151667,"lon":-121.925831667,"alt":44.800,"epx":8.628,"epy":9.504,"epv":25.300,"track":208.9000,"speed":0.720,"climb":0.000,"eps":380.14,"epc":1012.00}
{"class":"TPV","device":"/dev/tty96B1","mode":3,"time":"2018-09-08T16:38:15.639Z","ept":0.005,"lat":37.329151667,"lon":-121.925831667,"alt":44.800,"epx":8.628,"epy":9.504,"epv":25.300,"track":208.9000,"speed":0.669,"climb":0.000,"eps":380.14,"epc":1012.00}
{"class":"TPV","device":"/dev/tty96B1","mode":3,"time":"2018-09-08T16:38:15.689Z","ept":0.005,"lat":37.329151667,"lon":-121.925831667,"alt":44.800,"epx":8.628,"epy":9.504,"epv":25.300,"track":208.9000,"speed":0.669,"climb":0.000,"eps":380.14,"epc":1012.00}
{"class":"TPV","device":"/dev/tty96B1","mode":3,"time":"2018-09-08T16:38:15.739Z","ept":0.005,"lat":37.329151667,"lon":-121.925831667,"alt":44.700,"epx":8.628,"epy":9.504,"epv":25.300,"track":208.9000,"speed":0.772,"climb":-2.000,"eps":380.14,"epc":1012.00}
{"class":"TPV","device":"/dev/tty96B1","mode":3,"time":"2018-09-08T16:38:15.789Z","ept":0.005,"lat":37.329151667,"lon":-121.925833333,"alt":44.700,"epx":8.628,"epy":9.504,"epv":25.300,"track":208.9000,"speed":0.926,"climb":0.000,"eps":380.14,"epc":1012.00}
{"class":"TPV","device":"/dev/tty96B1","mode":3,"time":"2018-09-08T16:38:15.839Z","ept":0.005,"lat":37.329151667,"lon":-121.925833333,"alt":44.700,"epx":8.628,"epy":9.504,"epv":25.300,"track":208.9000,"speed":1.080,"climb":0.000,"eps":380.14,"epc":1012.00}
{"class":"TPV","device":"/dev/tty96B1","mode":3,"time":"2018-09-08T16:38:15.889Z","ept":0.005,"lat":37.329151667,"lon":-121.925833333,"alt":44.700,"epx":8.628,"epy":9.504,"epv":25.300,"track":208.9000,"speed":1.235,"climb":0.000,"eps":380.14,"epc":1012.00}
{"class":"TPV","device":"/dev/tty96B1","mode":3,"time":"2018-09-08T16:38:15.939Z","ept":0.005,"lat":37.329151667,"lon":-121.925833333,"alt":44.600,"epx":8.628,"epy":9.504,"epv":25.300,"track":208.9000,"speed":1.389,"climb":-2.000,"eps":380.14,"epc":1012.00}
{"class":"SKY","device":"/dev/tty96B1","xdop":0.58,"ydop":0.63,"vdop":1.10,"tdop":0.69,"hdop":0.90,"gdop":1.57,"pdop":1.40,"satellites":[{"PRN":12,"el":79,"az":133,"ss":48,"used":true},{"PRN":2,"el":71,"az":42,"ss":37,"used":true},{"PRN":25,"el":54,"az":313,"ss":36,"used":true},{"PRN":5,"el":34,"az":143,"ss":37,"used":true},{"PRN":29,"el":28,"az":286,"ss":44,"used":true},{"PRN":6,"el":22,"az":45,"ss":29,"used":true},{"PRN":24,"el":17,"az":203,"ss":29,"used":true},{"PRN":19,"el":12,"az":78,"ss":27,"used":true},{"PRN":31,"el":7,"az":324,"ss":25,"used":true}]}
{"class":"TPV","device":"/dev/tty96B1","mode":3,"time":"2018-09-08T16:38:15.989Z","ept":0.005,"lat":37.329151667,"lon":-121.925833333,"alt":44.600,"epx":8.628,"epy":9.504,"epv":25.300,"track":208.9000,"speed":1.543,"climb":0.000,"eps":380.14,"epc":1012.00}
{"class":"TPV","device":"/dev/tty96B1","mode":3,"time":"2018-09-08T16:38:16.039Z","ept":0.005,"lat":37.329151667,"lon":-121.925835000,"alt":44.600,"epx":8.628,"epy":9.504,"epv":25.300,"track":205.2000,"speed":1.595,"climb":0.000,"eps":380.14,"epc":1012.00}
{"class":"TPV","device":"/dev/tty96B1","mode":3,"time":"2018-09-08T16:38:16.089Z","ept":0.005,"lat":37.329151667,"lon":-121.925835000,"alt":44.600,"epx":8.628,"epy":9.504,"epv":25.300,"track":201.6000,"speed":1.646,"climb":0.000,"eps":380.14,"epc":1012.00}
{"class":"TPV","device":"/dev/tty96B1","mode":3,"time":"2018-09-08T16:38:16.139Z","ept":0.005,"lat":37.329151667,"lon":-121.925835000,"alt":44.500,"epx":8.628,"epy":9.504,"epv":25.300,"track":203.0000,"speed":1.646,"climb":-2.000,"eps":380.14,"epc":1012.00}
{"class":"TPV","device":"/dev/tty96B1","mode":3,"time":"2018-09-08T16:38:16.189Z","ept":0.005,"lat":37.329151667,"lon":-121.925835000,"alt":44.500,"epx":8.628,"epy":9.504,"epv":25.300,"track":204.4000,"speed":1.646,"climb":0.000,"eps":380.14,"epc":1012.00}
{"class":"TPV","device":"/dev/tty96B1","mode":3,"time":"2018-09-08T16:38:16.239Z","ept":0.005,"lat":37.329151667,"lon":-121.925835000,"alt":44.500,"epx":8.628,"epy":9.504,"epv":25.300,"track":204.9000,"speed":1.646,"climb":0.000,"eps":380.14,"epc":1012.00}
{"class":"TPV","device":"/dev/tty96B1","mode":3,"time":"2018-09-08T16:38:16.289Z","ept":0.005,"lat":37.329151667,"lon":-121.925835000,"alt":44.500,"epx":8.628,"epy":9.504,"epv":25.300,"track":205.4000,"speed":1.646,"climb":0.000,"eps":380.14,"epc":1012.00}
{"class":"TPV","device":"/dev/tty96B1","mode":3,"time":"2018-09-08T16:38:16.339Z","ept":0.005,"lat":37.329151667,"lon":-121.925836667,"alt":44.400,"epx":8.628,"epy":9.504,"epv":25.300,"track":206.3000,"speed":1.698,"climb":-2.000,"eps":380.14,"epc":1012.00}
{"class":"TPV","device":"/dev/tty96B1","mode":3,"time":"2018-09-08T16:38:16.389Z","ept":0.005,"lat":37.329151667,"lon":-121.925836667,"alt":44.400,"epx":8.628,"epy":9.504,"epv":25.300,"track":207.1000,"speed":1.749,"climb":0.000,"eps":380.14,"epc":1012.00}
{"class":"TPV","device":"/dev/tty96B1","mode":3,"time":"2018-09-08T16:38:16.439Z","ept":0.005,"lat":37.329151667,"lon":-121.925836667,"alt":44.400,"epx":8.628,"epy":9.504,"epv":25.300,"track":206.9000,"speed":1.749,"climb":0.000,"eps":380.14,"epc":1012.00}
{"class":"TPV","device":"/dev/tty96B1","mode":3,"time":"2018-09-08T16:38:16.489Z","ept":0.005,"lat":37.329151667,"lon":-121.925836667,"alt":44.400,"epx":8.628,"epy":9.504,"epv":25.300,"track":206.6000,"speed":1.749,"climb":0.000,"eps":380.14,"epc":1012.00}
{"class":"TPV","device":"/dev/tty96B1","mode":3,"time":"2018-09-08T16:38:16.539Z","ept":0.005,"lat":37.329151667,"lon":-121.925836667,"alt":44.400,"epx":8.628,"epy":9.504,"epv":25.300,"track":206.0000,"speed":1.749,"climb":0.000,"eps":380.14,"epc":1012.00}
{"class":"TPV","device":"/dev/tty96B1","mode":3,"time":"2018-09-08T16:38:16.589Z","ept":0.005,"lat":37.329151667,"lon":-121.925836667,"alt":44.300,"epx":8.628,"epy":9.504,"epv":25.300,"track":205.5000,"speed":1.749,"climb":-2.000,"eps":380.14,"epc":1012.00}
{"class":"TPV","device":"/dev/tty96B1","mode":3,"time":"2018-09-08T16:38:16.639Z","ept":0.005,"lat":37.329151667,"lon":-121.925836667,"alt":44.300,"epx":8.628,"epy":9.504,"epv":25.300,"track":205.4000,"speed":1.801,"climb":0.000,"eps":380.14,"epc":1012.00}
{"class":"TPV","device":"/dev/tty96B1","mode":3,"time":"2018-09-08T16:38:16.689Z","ept":0.005,"lat":37.329151667,"lon":-121.925836667,"alt":44.300,"epx":8.628,"epy":9.504,"epv":25.300,"track":205.3000,"speed":1.903,"climb":0.000,"eps":380.14,"epc":1012.00}
{"class":"TPV","device":"/dev/tty96B1","mode":3,"time":"2018-09-08T16:38:16.739Z","ept":0.005,"lat":37.329151667,"lon":-121.925836667,"alt":44.300,"epx":8.628,"epy":9.504,"epv":25.300,"track":205.5000,"speed":2.109,"climb":0.000,"eps":380.14,"epc":1012.00}
{"class":"TPV","device":"/dev/tty96B1","mode":3,"time":"2018-09-08T16:38:16.789Z","ept":0.005,"lat":37.329151667,"lon":-121.925836667,"alt":44.300,"epx":8.628,"epy":9.504,"epv":25.300,"track":205.8000,"speed":2.315,"climb":0.000,"eps":380.14,"epc":1012.00}
{"class":"TPV","device":"/dev/tty96B1","mode":3,"time":"2018-09-08T16:38:16.839Z","ept":0.005,"lat":37.329151667,"lon":-121.925836667,"alt":44.300,"epx":8.628,"epy":9.504,"epv":25.300,"track":206.1000,"speed":2.469,"climb":0.000,"eps":380.14,"epc":1012.00}
{"class":"TPV","device":"/dev/tty96B1","mode":3,"time":"2018-09-08T16:38:16.889Z","ept":0.005,"lat":37.329151667,"lon":-121.925836667,"alt":44.300,"epx":8.628,"epy":9.504,"epv":25.300,"track":206.4000,"speed":2.624,"climb":0.000,"eps":380.14,"epc":1012.00}
{"class":"TPV","device":"/dev/tty96B1","mode":3,"time":"2018-09-08T16:38:16.939Z","ept":0.005,"lat":37.329151667,"lon":-121.925838333,"alt":44.300,"epx":8.628,"epy":9.504,"epv":25.300,"track":206.4000,"speed":2.675,"climb":0.000,"eps":380.14,"epc":1012.00}
{"class":"SKY","device":"/dev/tty96B1","xdop":0.58,"ydop":0.63,"vdop":1.10,"tdop":0.69,"hdop":0.90,"gdop":1.57,"pdop":1.40,"satellites":[{"PRN":12,"el":79,"az":133,"ss":48,"used":true},{"PRN":2,"el":71,"az":42,"ss":40,"used":true},{"PRN":25,"el":54,"az":313,"ss":45,"used":true},{"PRN":5,"el":34,"az":143,"ss":39,"used":true},{"PRN":29,"el":28,"az":286,"ss":34,"used":true},{"PRN":6,"el":22,"az":45,"ss":40,"used":true},{"PRN":24,"el":17,"az":203,"ss":30,"used":true},{"PRN":19,"el":12,"az":78,"ss":27,"used":true},{"PRN":31,"el":7,"az":324,"ss":26,"used":true}]}
{"class":"TPV","device":"/dev/tty96B1","mode":3,"time":"2018-09-08T16:38:16.989Z","ept":0.005,"lat":37.329150000,"lon":-121.925838333,"alt":44.200,"epx":8.628,"epy":9.504,"epv":25.300,"track":206.4000,"speed":2.727,"climb":-2.000,"eps":380.14,"epc":1012.00}
{"class":"TPV","device":"/dev/tty96B1","mode":3,"time":"2018-09-08T16:38:17.039Z","ept":0.005,"lat":37.329150000,"lon":-121.925838333,"alt":44.200,"epx":8.628,"epy":9.504,"epv":25.300,"track":206.7000,"speed":2.727,"climb":0.000,"eps":380.14,"epc":1012.00}
{"class":"TPV","device":"/dev/tty96B1","mode":3,"time":"2018-09-08T16:38:17.089Z","ept":0.005,"lat":37.329150000,"lon":-121.925840000,"alt":44.200,"epx":8.628,"epy":9.504,"epv":25.300,"track":207.0000,"speed":2.727,"climb":0.000,"eps":380.14,"epc":1012.00}
{"class":"TPV","device":"/dev/tty96B1","mode":3,"time":"2018-09-08T16:38:17.139Z","ept":0.005,"lat":37.329148333,"lon":-121.925840000,"alt":44.200,"epx":8.628,"epy":9.504,"epv":25.300,"track":207.6000,"speed":2.675,"climb":0.000,"eps":380.14,"epc":1012.00}
{"class":"TPV","device":"/dev/tty96B1","mode":3,"time":"2018-09-08T16:38:17.189Z","ept":0.005,"lat":37.329148333,"lon":-121.925840000,"alt":44.200,"epx":8.628,"epy":9.504,"epv":25.300,"track":208.2000,"speed":2.675,"climb":0.000,"eps":380.14,"epc":1012.00}
{"class":"TPV","device":"/dev/tty96B1","mode":3,"time":"2018-09-08T16:38:17.239Z","ept":0.005,"lat":37.329146667,"lon":-121.925841667,"alt":44.200,"epx":8.628,"epy":9.504,"epv":25.300,"track":208.7000,"speed":2.675,"climb":0.000,"eps":380.14,"epc":1012.00}
{"class":"TPV","device":"/dev/tty96B1","mode":3,"time":"2018-09-08T16:38:17.289Z","ept":0.005,"lat":37.329146667,"lon":-121.925841667,"alt":44.200,"epx":8.628,"epy":9.504,"epv":25.300,"track":209.3000,"speed":2.675,"climb":0.000,"eps":380.14,"epc":1012.00}
{"class":"TPV","device":"/dev/tty96B1","mode":3,"time":"2018-09-08T16:38:17.339Z","ept":0.005,"lat":37.329145000,"lon":-121.925843333,"alt":44.200,"epx":8.628,"epy":9.504,"epv":25.300,"track":209.4000,"speed":2.727,"climb":0.000,"eps":380.14,"epc":1012.00}
{"class":"TPV","device":"/dev/tty96B1","mode":3,"time":"2018-09-08T16:38:17.389Z","ept":0.005,"lat":37.329145000,"lon":-121.925843333,"alt":44.100,"epx":8.628,"epy":9.504,"epv":25.300,"track":209.5000,"speed":2.778,"climb":-2.000,"eps":380.14,"epc":1012.00}
{"class":"TPV","device":"/dev/tty96B1","mode":3,"time":"2018-09-08T16:38:17.439Z","ept":0.005,"lat":37.329143333,"lon":-121.925845000,"alt":44.100,"epx":8.628,"epy":9.504,"epv":25.300,"track":209.9000,"speed":2.727,"climb":0.000,"eps":380.14,"epc":1012.00}
{"class":"TPV","device":"/dev/tty96B1","mode":3,"time":"2018-09-08T16:38:17.489Z","ept":0.005,"lat":37.329143333,"lon":-121.925846667,"alt":44.100,"epx":8.628,"epy":9.504,"epv":25.300,"track":210.4000,"speed":2.675,"climb":0.000,"eps":380.14,"epc":1012.00}
{"class":"TPV","device":"/dev/tty96B1","mode":3,"time":"2018-09-08T16:38:17.539Z","ept":0.005,"lat":37.329141667,"lon":-121.925846667,"alt":44.100,"epx":8.628,"epy":9.504,"epv":25.300,"track":211.0000,"speed":2.624,"climb":0.000,"eps":380.14,"epc":1012.00}
{"class":"TPV","device":"/dev/tty96B1","mode":3,"time":"2018-09-08T16:38:17.589Z","ept":0.005,"lat":37.329141667,"lon":-121.925848333,"alt":44.100,"epx":8.628,"epy":9.504,"epv":25.300,"track":211.5000,"speed":2.675,"climb":0.000,"eps":380.14,"epc":1012.00}
{"class":"TPV","device":"/dev/tty96B1","mode":3,"time":"2018-09-08T16:38:17.639Z","ept":0.005,"lat":37.329140000,"lon":-121.925850000,"alt":44.000,"epx":8.628,"epy":9.504,"epv":25.300,"track":212.1000,"speed":2.727,"climb":-2.000,"eps":380.14,"epc":1012.00}
{"class":"TPV","device":"/dev/tty96B1","mode":3,"time":"2018-09-08T16:38:17.689Z","ept":0.005,"lat":37.329140000,"lon":-121.925850000,"alt":44.000,"epx":8.628,"epy":9.504,"epv":25.300,"track":212.8000,"speed":2.881,"climb":0.000,"eps":380.14,"epc":1012.00}
{"class":"TPV","device":"/dev/tty96B1","mode":3,"time":"2018-09-08T16:38:17.739Z","ept":0.005,"lat":37.329138333,"lon":-121.925851667,"alt":44.000,"epx":8.628,"epy":9.504,"epv":25.300,"track":212.3000,"speed":2.984,"climb":0.000,"eps":380.14,"epc":1012.00}
{"class":"TPV","device":"/dev/tty96B1","mode":3,"time":"2018-09-08T16:38:17.789Z","ept":0.005,"lat":37.329138333,"lon":-121.925851667,"alt":43.900,"epx":8.628,"epy":9.504,"epv":25.300,"track":211.7000,"speed":3.087,"climb":-2.000,"eps":380.14,"epc":1012.00}
{"class":"TPV","device":"/dev/tty96B1","mode":3,"time":"2018-09-08T16:38:17.839Z","ept":0.005,"lat":37.329136667,"lon":-121.925853333,"alt":43.900,"epx":8.628,"epy":9.504,"epv":25.300,"track":212.5000,"speed":3.138,"climb":0.000,"eps":380.14,"epc":1012.00}
{"class":"TPV","device":"/dev/tty96B1","mode":3,"time":"2018-09-08T16:38:17.889Z","ept":0.005,"lat":37.329135000,"lon":-121.925855000,"alt":43.800,"epx":8.628,"epy":9.504,"epv":25.300,"track":213.3000,"speed":3.138,"climb":-2.000,"eps":380.14,"epc":1012.00}
